address,property_type,zipcode,price,beds,baths,sqft,lot_size,days_on_market,price_per_sqft,hoa_month,lat,long,property_age,school_rating,school_count,bart_count,median_income,hotness_score,supply_score,demand_score,malls_count,university_count
"6985 calistoga ln, dublin, ca 94568",Condo/Co-op,94568,905000,3,4,1994,0,80,454,388.0,37.733978,-121.872736,3,8,11,1,119637,83.72,94.25,73.19,0,0
"270 birch creek dr, pleasanton, ca 94566",Townhouse,94566,645000,2,2,1221,1237,143,528,379.0,37.663585,-121.864563,35,8,9,0,126782,80.07,79.57,80.57,1,0
"5324 brookside ct, pleasanton, ca 94588",Condo/Co-op,94588,940000,4,2,1928,2660,148,488,470.0,37.689374,-121.922526,40,9,6,1,134451,85.91,87.06,84.76,1,0
"4385 clovewood ln, pleasanton, ca 94588",Single Family Residential,94588,1036000,3,2,1355,7708,66,765,33.0,37.6801319,-121.9151098,55,9,6,1,134451,85.91,87.06,84.76,1,0
"4273 trolan ln, dublin, ca 94568",Single Family Residential,94568,1250000,4,4,3083,3058,143,405,232.0,37.737748,-121.8765253,4,8,11,1,119637,83.72,94.25,73.19,0,0
"3105 chardonnay dr, pleasanton, ca 94566",Single Family Residential,94566,1370000,4,2,2494,8125,126,549,0.0,37.6645079,-121.8495227,49,8,9,0,126782,80.07,79.57,80.57,1,0
"7370 yountville st, dublin, ca 94568",Single Family Residential,94568,1290000,4,4,3180,4477,123,406,232.0,37.7370129,-121.8775073,3,8,11,1,119637,83.72,94.25,73.19,0,0
"1586 foothill rd, pleasanton, ca 94588",Single Family Residential,94588,1492000,4,2,2482,22303,140,601,0.0,37.6419916,-121.8988167,46,9,6,1,134451,85.91,87.06,84.76,1,0
"3843 vineyard ave #15, pleasanton, ca 94566",Condo/Co-op,94566,421500,1,1,621,0,94,679,315.0,37.6649098,-121.863804,38,8,9,0,126782,80.07,79.57,80.57,1,0
"3417 smoketree commons dr, pleasanton, ca 94566",Condo/Co-op,94566,545000,2,2,856,0,36,637,420.0,37.6645106,-121.8556068,33,8,9,0,126782,80.07,79.57,80.57,1,0
"3443 cumberland gap ct, pleasanton, ca 94588",Single Family Residential,94588,985000,3,2,1386,6000,56,711,0.0,37.6756266,-121.9044851,50,9,6,1,134451,85.91,87.06,84.76,1,0
"453 los rios ct, pleasanton, ca 94566",Single Family Residential,94566,1765000,4,3,2710,8120,111,651,0.0,37.6518397,-121.874606,36,8,9,0,126782,80.07,79.57,80.57,1,0
"846 e angela st, pleasanton, ca 94566",Single Family Residential,94566,1391500,4,3,2920,7200,136,477,0.0,37.65424829999999,-121.8627989,21,8,9,0,126782,80.07,79.57,80.57,1,0
"942 clinton pl, pleasanton, ca 94566",Single Family Residential,94566,975000,3,2,1587,5758,14,614,144.0,37.6557977,-121.8595745,31,8,9,0,126782,80.07,79.57,80.57,1,0
"5622 san jose dr, pleasanton, ca 94566",Single Family Residential,94566,1202500,4,2,1909,7000,11,630,0.0,37.647788,-121.8738278,50,8,9,0,126782,80.07,79.57,80.57,1,0
"6486 alvord way, pleasanton, ca 94588",Single Family Residential,94588,849000,4,2,1607,6501,32,528,0.0,37.6889184,-121.9104644,53,9,6,1,134451,85.91,87.06,84.76,1,0
"7717 cottonwood ln, pleasanton, ca 94588",Single Family Residential,94588,1170000,3,2,1593,7789,133,734,32.0,37.6787749,-121.9197995,55,9,6,1,134451,85.91,87.06,84.76,1,0
"3908 petrified forest ct, pleasanton, ca 94588",Single Family Residential,94588,1032500,4,2,1549,6659,36,667,0.0,37.6746835,-121.9102866,51,9,6,1,134451,85.91,87.06,84.76,1,0
"4611 helpert ct, pleasanton, ca 94588",Single Family Residential,94588,1140000,3,2,1555,6200,15,733,0.0,37.687892,-121.9094642,53,9,6,1,134451,85.91,87.06,84.76,1,0
"4229 holland dr, pleasanton, ca 94588",Single Family Residential,94588,1100000,3,2,1372,6500,91,802,0.0,37.6797044,-121.9116869,50,9,6,1,134451,85.91,87.06,84.76,1,0
"7651 fairoaks dr, pleasanton, ca 94588",Single Family Residential,94588,1000000,3,2,1357,7294,126,737,0.0,37.6874092,-121.9242222,50,9,6,1,134451,85.91,87.06,84.76,1,0
"5375 springdale ave, pleasanton, ca 94588",Townhouse,94588,816000,3,2,1549,2660,67,527,470.0,37.6887169,-121.923965,48,9,6,1,134451,85.91,87.06,84.76,1,0
"3300 newport st, pleasanton, ca 94566",Single Family Residential,94566,1500000,3,4,2928,7844,3,512,225.0,37.680179,-121.859197,10,8,9,0,126782,80.07,79.57,80.57,1,0
"2623 corte vida, pleasanton, ca 94566",Single Family Residential,94566,1525000,4,2,2439,13069,129,625,0.0,37.6713455,-121.89801640000002,41,8,9,0,126782,80.07,79.57,80.57,1,0
"1820 paseo del cajon, pleasanton, ca 94566",Single Family Residential,94566,1469000,4,2,2630,6981,42,559,0.0,37.66959179999999,-121.8911028,53,8,9,0,126782,80.07,79.57,80.57,1,0
"5834 corte margarita, pleasanton, ca 94566",Single Family Residential,94566,1486000,3,2,1882,11039,22,790,0.0,37.6694548,-121.8953488,24,8,9,0,126782,80.07,79.57,80.57,1,0
"5764 belleza dr, pleasanton, ca 94588",Townhouse,94588,900000,4,3,1928,1369,4,467,295.0,37.6864289,-121.889158,26,9,6,1,134451,85.91,87.06,84.76,1,0
"2749 camino casa buena, pleasanton, ca 94566",Single Family Residential,94566,1470000,4,2,2489,6626,64,591,0.0,37.671192,-121.90244009999998,30,8,9,0,126782,80.07,79.57,80.57,1,0
"2478 raven rd, pleasanton, ca 94566",Single Family Residential,94566,1220000,4,2,1882,6825,31,648,0.0,37.68043220000001,-121.8824323,53,8,9,0,126782,80.07,79.57,80.57,1,0
"1507 poppybank, pleasanton, ca 94566",Single Family Residential,94566,1060000,4,2,2030,2850,50,522,276.0,37.679921,-121.867122,31,8,9,0,126782,80.07,79.57,80.57,1,0
"4604 ross gate way, pleasanton, ca 94566",Single Family Residential,94566,1100000,4,2,1815,6921,128,606,0.0,37.6840193,-121.880209,45,8,9,0,126782,80.07,79.57,80.57,1,0
"2769 hartley gate ct, pleasanton, ca 94566",Single Family Residential,94566,1250000,4,3,2179,8317,65,574,0.0,37.6874711,-121.8815429,36,8,9,0,126782,80.07,79.57,80.57,1,0
"3715 oak brook ct, pleasanton, ca 94588",Single Family Residential,94588,1083000,3,2,1668,6200,142,649,33.0,37.6971474,-121.86629,46,9,6,1,134451,85.91,87.06,84.76,1,0
"3858 stratford ct, pleasanton, ca 94588",Single Family Residential,94588,1041000,3,2,1498,8389,156,695,32.0,37.6977799,-121.8682912,36,9,6,1,134451,85.91,87.06,84.76,1,0
"4284 diavila ave, pleasanton, ca 94588",Single Family Residential,94588,1098000,3,2,1850,3350,102,594,125.0,37.6886815,-121.8754064,28,9,6,1,134451,85.91,87.06,84.76,1,0
"7745 capewood pl, pleasanton, ca 94588",Single Family Residential,94588,1118000,4,2,1593,8630,4,702,33.0,37.6813075,-121.9215108,56,9,6,1,134451,85.91,87.06,84.76,1,0
"4075 st helena way, dublin, ca 94568",Single Family Residential,94568,1105000,4,2,2069,2851,21,534,237.0,37.736513,-121.873423,3,8,11,1,119637,83.72,94.25,73.19,0,0
"7710 canyon meadow cir unit c, pleasanton, ca 94588",Condo/Co-op,94588,440000,1,1,790,0,43,557,423.0,37.6973601,-121.9492829,30,9,6,1,134451,85.91,87.06,84.76,1,0
"10885 mcpeak ln, dublin, ca 94568",Townhouse,94568,725000,3,2,1387,5806,51,523,325.0,37.6996796,-121.9568651,24,8,11,1,119637,83.72,94.25,73.19,0,0
"435 del sol ave, pleasanton, ca 94566",Single Family Residential,94566,1060000,3,2,1514,6507,108,700,0.0,37.6587138,-121.8690473,46,8,9,0,126782,80.07,79.57,80.57,1,0
"216 spring st, pleasanton, ca 94566",Single Family Residential,94566,1175000,4,2,2498,3900,46,470,0.0,37.6624155,-121.8735387,22,8,9,0,126782,80.07,79.57,80.57,1,0
"5432 san juan way, pleasanton, ca 94566",Single Family Residential,94566,1080000,3,2,1476,7042,122,732,0.0,37.6499171,-121.8771407,57,8,9,0,126782,80.07,79.57,80.57,1,0
"3572 whitehall ct, pleasanton, ca 94588",Single Family Residential,94588,1180000,4,3,2140,7284,136,551,33.0,37.698566,-121.867046,37,9,6,1,134451,85.91,87.06,84.76,1,0
"3689 woodbine way, pleasanton, ca 94588",Townhouse,94588,745000,4,2,1541,1050,126,483,225.0,37.700187,-121.866362,42,9,6,1,134451,85.91,87.06,84.76,1,0
"4019 rennellwood way, pleasanton, ca 94566",Single Family Residential,94566,820000,3,2,1280,3486,81,641,0.0,37.6789881,-121.8700701,40,8,9,0,126782,80.07,79.57,80.57,1,0
"3895 northwood ct, pleasanton, ca 94588",Single Family Residential,94588,1090000,4,2,2000,7702,73,545,0.0,37.6699818,-121.9145319,53,9,6,1,134451,85.91,87.06,84.76,1,0
"6650 via san blas, pleasanton, ca 94566",Single Family Residential,94566,1337000,4,2,2469,7148,59,542,31.0,37.6672939,-121.900973,50,8,9,0,126782,80.07,79.57,80.57,1,0
"2265 camino brazos, pleasanton, ca 94566",Single Family Residential,94566,1270000,4,2,1930,6700,45,658,0.0,37.6679307,-121.8942595,50,8,9,0,126782,80.07,79.57,80.57,1,0
"78 sunflower hill way, pleasanton, ca 94566",Single Family Residential,94566,1280000,4,3,2434,2527,24,526,189.0,37.6668706,-121.8650273,1,8,9,0,126782,80.07,79.57,80.57,1,0
"2690 minton ct, pleasanton, ca 94566",Single Family Residential,94566,1403000,4,3,2342,6636,25,599,150.0,37.6605722,-121.9063967,27,8,9,0,126782,80.07,79.57,80.57,1,0
"3024 bolero ct, pleasanton, ca 94588",Townhouse,94588,965000,4,3,1928,1369,24,501,295.0,37.6873379,-121.885758,27,9,6,1,134451,85.91,87.06,84.76,1,0
"4634 ithaca way, pleasanton, ca 94588",Townhouse,94588,710000,4,2,1474,1027,142,482,292.0,37.691042,-121.88088,48,9,6,1,134451,85.91,87.06,84.76,1,0
"4992 wingate dr, pleasanton, ca 94566",Single Family Residential,94566,1440000,4,2,2167,9049,91,665,0.0,37.6727364,-121.8836995,55,8,9,0,126782,80.07,79.57,80.57,1,0
"115 ray st, pleasanton, ca 94566",Condo/Co-op,94566,655000,3,2,1371,0,111,478,0.0,37.6635415,-121.8714499,34,8,9,0,126782,80.07,79.57,80.57,1,0
"5932 corte cerritos, pleasanton, ca 94566",Single Family Residential,94566,1052000,3,2,1745,6628,70,603,0.0,37.6731848,-121.8996781,36,8,9,0,126782,80.07,79.57,80.57,1,0
"2720 camino segura, pleasanton, ca 94566",Single Family Residential,94566,1560000,5,3,2613,7375,24,597,0.0,37.6703604,-121.9010396,34,8,9,0,126782,80.07,79.57,80.57,1,0
"6140 corte padre, pleasanton, ca 94566",Single Family Residential,94566,810000,2,2,1241,4790,168,653,0.0,37.670448,-121.899817,35,8,9,0,126782,80.07,79.57,80.57,1,0
"4890 cobbler ct, pleasanton, ca 94566",Single Family Residential,94566,1850000,4,2,3602,15920,133,514,0.0,37.6544512,-121.8676019,37,8,9,0,126782,80.07,79.57,80.57,1,0
"665 palomino dr unit a, pleasanton, ca 94566",Townhouse,94566,610000,2,2,1198,1521,25,509,440.0,37.660421,-121.856628,36,8,9,0,126782,80.07,79.57,80.57,1,0
"584 tawny dr, pleasanton, ca 94566",Single Family Residential,94566,1300000,4,2,1964,11700,22,662,0.0,37.66364179999999,-121.852903,47,8,9,0,126782,80.07,79.57,80.57,1,0
"194 peters ave unit c, pleasanton, ca 94566",Condo/Co-op,94566,549999,2,2,878,0,4,626,425.0,37.659663,-121.878069,32,8,9,0,126782,80.07,79.57,80.57,1,0
"1664 calle santiago, pleasanton, ca 94566",Townhouse,94566,690000,2,2,941,2003,120,733,450.0,37.66912,-121.887485,50,8,9,0,126782,80.07,79.57,80.57,1,0
"1233 creek trail dr, pleasanton, ca 94566",Single Family Residential,94566,1830000,5,4,3271,6879,16,559,97.0,37.6664961,-121.8863452,21,8,9,0,126782,80.07,79.57,80.57,1,0
"1530 ridgewood rd, pleasanton, ca 94566",Single Family Residential,94566,1350000,4,2,1854,7385,9,728,0.0,37.6715445,-121.8797643,56,8,9,0,126782,80.07,79.57,80.57,1,0
"5409 cameo ct, pleasanton, ca 94588",Townhouse,94588,785000,2,2,1501,2164,149,523,415.0,37.689633,-121.925048,30,9,6,1,134451,85.91,87.06,84.76,1,0
"4189 lucca ct, pleasanton, ca 94588",Townhouse,94588,708000,2,2,1064,1631,1,665,239.0,37.695219,-121.892164,24,9,6,1,134451,85.91,87.06,84.76,1,0
"7826 la quinta ct, pleasanton, ca 94588",Single Family Residential,94588,1400000,3,2,2520,6475,28,556,380.0,37.64757279999999,-121.9004172,26,9,6,1,134451,85.91,87.06,84.76,1,0
"8172 arroyo dr #4, pleasanton, ca 94588",Condo/Co-op,94588,458000,2,1,810,0,73,565,350.0,37.6502445,-121.90386979999998,49,9,6,1,134451,85.91,87.06,84.76,1,0
"691 palomino dr unit a, pleasanton, ca 94566",Townhouse,94566,618000,2,2,1198,1109,123,516,440.0,37.660169,-121.8562523,36,8,9,0,126782,80.07,79.57,80.57,1,0
"5734 athenour ct, pleasanton, ca 94588",Single Family Residential,94588,1350000,4,2,2131,4993,4,634,75.0,37.6834179,-121.9356006,24,9,6,1,134451,85.91,87.06,84.76,1,0
"4454 linda way, pleasanton, ca 94566",Single Family Residential,94566,1060000,3,2,1496,8000,140,709,0.0,37.6562652,-121.8667347,64,8,9,0,126782,80.07,79.57,80.57,1,0
"3981 vineyard ave, pleasanton, ca 94566",Single Family Residential,94566,1150000,3,2,2004,7500,100,574,0.0,37.6632614,-121.8662455,64,8,9,0,126782,80.07,79.57,80.57,1,0
"246 trenton cir, pleasanton, ca 94566",Single Family Residential,94566,910000,3,2,1075,4070,165,847,109.0,37.667303,-121.8681134,27,8,9,0,126782,80.07,79.57,80.57,1,0
"4022 alvarado st, pleasanton, ca 94566",Single Family Residential,94566,858000,3,2,1159,6500,168,740,0.0,37.6736549,-121.8692029,57,8,9,0,126782,80.07,79.57,80.57,1,0
"1397 kolln st, pleasanton, ca 94566",Single Family Residential,94566,934000,3,2,1236,6500,119,756,0.0,37.6750409,-121.8685136,56,8,9,0,126782,80.07,79.57,80.57,1,0
"7272 carneros ln, dublin, ca 94568",Single Family Residential,94568,1005000,4,4,2282,1686,93,440,215.0,37.7369478,-121.8745071,4,8,11,1,119637,83.72,94.25,73.19,0,0
"1039 nelson ct, pleasanton, ca 94566",Single Family Residential,94566,1875000,4,3,3050,12249,157,615,0.0,37.6484849,-121.8689583,32,8,9,0,126782,80.07,79.57,80.57,1,0
"7256 kenwood rd, dublin, ca 94568",Single Family Residential,94568,1230000,4,4,3015,2975,150,408,250.0,37.7361719,-121.8759152,4,8,11,1,119637,83.72,94.25,73.19,0,0
"4222 bevilacqua ct, pleasanton, ca 94566",Single Family Residential,94566,1450000,4,3,2747,13789,108,528,0.0,37.6598208,-121.86735729999998,57,8,9,0,126782,80.07,79.57,80.57,1,0
"182 valletta ln, pleasanton, ca 94566",Single Family Residential,94566,870000,4,3,1912,2152,95,455,0.0,37.6624899,-121.8703314,5,8,9,0,126782,80.07,79.57,80.57,1,0
"301 diamond ct, pleasanton, ca 94566",Single Family Residential,94566,1250000,4,2,2110,7377,71,592,0.0,37.6434985,-121.8811205,27,8,9,0,126782,80.07,79.57,80.57,1,0
"3091 chardonnay dr, pleasanton, ca 94566",Single Family Residential,94566,1015000,4,2,2050,8125,164,495,0.0,37.6644999,-121.8493003,49,8,9,0,126782,80.07,79.57,80.57,1,0
"4419 newman pl, pleasanton, ca 94588",Townhouse,94588,887000,3,2,1640,2695,157,541,210.0,37.6936478,-121.8776743,23,9,6,1,134451,85.91,87.06,84.76,1,0
"4090 nevis st, pleasanton, ca 94566",Single Family Residential,94566,970000,3,2,1610,6914,161,602,0.0,37.6710419,-121.8707371,60,8,9,0,126782,80.07,79.57,80.57,1,0
"4190 rennellwood way, pleasanton, ca 94566",Single Family Residential,94566,941000,3,2,1246,3486,85,755,0.0,37.6793113,-121.8707371,45,8,9,0,126782,80.07,79.57,80.57,1,0
"4156 jensen st, pleasanton, ca 94566",Single Family Residential,94566,890000,4,2,1822,6014,163,488,0.0,37.6677636,-121.870626,67,8,9,0,126782,80.07,79.57,80.57,1,0
"3666 reflections dr, pleasanton, ca 94566",Single Family Residential,94566,910000,3,2,1075,4028,105,847,109.0,37.668838,-121.8637551,26,8,9,0,126782,80.07,79.57,80.57,1,0
"4573 shawnee way, pleasanton, ca 94588",Townhouse,94588,530000,3,2,1130,901,91,469,285.0,37.6915509,-121.880413,50,9,6,1,134451,85.91,87.06,84.76,1,0
"1033 riesling dr, pleasanton, ca 94566",Single Family Residential,94566,1305000,4,2,2012,9054,129,649,0.0,37.6565863,-121.8544597,55,8,9,0,126782,80.07,79.57,80.57,1,0
"4331 douglas ct, pleasanton, ca 94588",Single Family Residential,94588,990000,3,2,1555,7000,119,637,0.0,37.6854738,-121.90824170000002,52,9,6,1,134451,85.91,87.06,84.76,1,0
"2130 pomezia ct, pleasanton, ca 94566",Single Family Residential,94566,1975000,3,3,2627,8345,63,752,240.0,37.6399184,-121.8187612,23,8,9,0,126782,80.07,79.57,80.57,1,0
"5505 black ave, pleasanton, ca 94566",Single Family Residential,94566,612500,3,3,1950,7338,111,314,0.0,37.6715668,-121.8908804,52,8,9,0,126782,80.07,79.57,80.57,1,0
"2528 willowren way, pleasanton, ca 94566",Single Family Residential,94566,1390000,4,2,2024,6825,127,687,0.0,37.678544,-121.8887685,53,8,9,0,126782,80.07,79.57,80.57,1,0
"1865 rosetree ct, pleasanton, ca 94566",Single Family Residential,94566,1350000,4,3,2344,6736,46,576,0.0,37.6753401,-121.8783413,56,8,9,0,126782,80.07,79.57,80.57,1,0
"694 peters ave, pleasanton, ca 94566",Condo/Co-op,94566,660000,2,2,964,0,58,685,250.0,37.662605,-121.876646,34,8,9,0,126782,80.07,79.57,80.57,1,0
"2290 via espada, pleasanton, ca 94566",Single Family Residential,94566,1200000,4,3,2124,8915,108,565,0.0,37.6666129,-121.8946597,50,8,9,0,126782,80.07,79.57,80.57,1,0
"1417 white stable dr, pleasanton, ca 94566",Single Family Residential,94566,1625000,5,4,3289,8217,168,494,98.0,37.6662203,-121.88763459999998,20,8,9,0,126782,80.07,79.57,80.57,1,0
"2145 armstrong dr, pleasanton, ca 94588",Single Family Residential,94588,800000,2,2,930,3549,91,860,15.0,37.68608320000001,-121.872604,37,9,6,1,134451,85.91,87.06,84.76,1,0
"4047 cristobal way, pleasanton, ca 94566",Single Family Residential,94566,990000,4,2,1737,8532,175,570,0.0,37.6747333,-121.8695364,56,8,9,0,126782,80.07,79.57,80.57,1,0
"7706 redbud ct, pleasanton, ca 94588",Single Family Residential,94588,1107000,4,3,2523,6371,111,439,0.0,37.67533870000001,-121.9176224,51,9,6,1,134451,85.91,87.06,84.76,1,0
"1211 summer ct, pleasanton, ca 94566",Single Family Residential,94566,1378000,4,2,2051,7477,108,672,0.0,37.6672995,-121.8818097,43,8,9,0,126782,80.07,79.57,80.57,1,0
"5393 midvale ct, pleasanton, ca 94588",Single Family Residential,94588,1160000,3,2,1813,9290,177,640,0.0,37.6862172,-121.926378,51,9,6,1,134451,85.91,87.06,84.76,1,0
"2017 kilkare rd, sunol, ca 94586",Single Family Residential,94586,1225000,3,2,1946,13190,84,629,40.0,37.62216420000001,-121.9063845,61,10,1,0,89505,82.0071573604059,87.33157475773004,76.68402976465252,0,0
"7779 forsythia ct, pleasanton, ca 94588",Single Family Residential,94588,1210000,4,2,2004,5996,122,604,44.0,37.6748794,-121.918403,51,9,6,1,134451,85.91,87.06,84.76,1,0
"5854 sterling greens cir, pleasanton, ca 94566",Single Family Residential,94566,1370000,3,2,2401,5500,134,571,54.0,37.6482658,-121.8859895,17,8,9,0,126782,80.07,79.57,80.57,1,0
"1376 w lagoon rd, pleasanton, ca 94566",Single Family Residential,94566,1735000,6,5,3547,7612,136,489,0.0,37.64950579999999,-121.8961713,18,8,9,0,126782,80.07,79.57,80.57,1,0
"3237 northampton ct, pleasanton, ca 94588",Single Family Residential,94588,920000,3,2,1767,6697,172,521,33.0,37.6944016,-121.87069270000002,53,9,6,1,134451,85.91,87.06,84.76,1,0
"2103 raven rd, pleasanton, ca 94566",Single Family Residential,94566,1500000,6,3,2538,7687,106,591,0.0,37.6776745,-121.8818987,54,8,9,0,126782,80.07,79.57,80.57,1,0
"7365 stonedale dr, pleasanton, ca 94588",Townhouse,94588,710000,2,2,1502,1460,18,473,350.0,37.689785,-121.919521,32,9,6,1,134451,85.91,87.06,84.76,1,0
"2450 tapestry way, pleasanton, ca 94566",Single Family Residential,94566,1100000,4,2,1838,5102,176,598,135.0,37.6571445,-121.9038627,26,8,9,0,126782,80.07,79.57,80.57,1,0
"6654 calle altamira, pleasanton, ca 94566",Single Family Residential,94566,1414000,5,2,2415,8000,78,586,42.0,37.6642393,-121.9009285,48,8,9,0,126782,80.07,79.57,80.57,1,0
"4189 garatti ct, pleasanton, ca 94566",Single Family Residential,94566,1335000,4,2,1902,8303,29,702,0.0,37.6779246,-121.8690028,37,8,9,0,126782,80.07,79.57,80.57,1,0
"1552 poppybank ct, pleasanton, ca 94566",Single Family Residential,94566,870000,3,2,1484,2850,39,586,276.0,37.679268,-121.86685,32,8,9,0,126782,80.07,79.57,80.57,1,0
"4025 chalk hill way, dublin, ca 94568",Single Family Residential,94568,1050000,4,2,2069,2726,157,507,232.0,37.737183,-121.8719378,4,8,11,1,119637,83.72,94.25,73.19,0,0
"7278 carneros ln, dublin, ca 94568",Single Family Residential,94568,1007000,4,4,2210,1680,157,456,215.0,37.7369945,-121.8744678,4,8,11,1,119637,83.72,94.25,73.19,0,0
"4036 st helena way, dublin, ca 94568",Single Family Residential,94568,1120000,3,2,2258,2760,66,496,234.0,37.736116,-121.872661,2,8,11,1,119637,83.72,94.25,73.19,0,0
"3298 burgundy dr, pleasanton, ca 94566",Single Family Residential,94566,1350000,4,3,2373,9908,119,569,0.0,37.6620283,-121.8518578,49,8,9,0,126782,80.07,79.57,80.57,1,0
"4055 peregrine way, pleasanton, ca 94566",Single Family Residential,94566,860000,3,2,1246,3486,126,690,0.0,37.6787346,-121.8684247,43,8,9,0,126782,80.07,79.57,80.57,1,0
"3325 newport st, pleasanton, ca 94566",Single Family Residential,94566,1367000,2,2,2372,5132,130,576,225.0,37.6798218,-121.8584626,8,8,9,0,126782,80.07,79.57,80.57,1,0
"4581 shearwater rd, pleasanton, ca 94566",Single Family Residential,94566,1260000,4,3,2146,6746,112,587,0.0,37.6804282,-121.8789639,50,8,9,0,126782,80.07,79.57,80.57,1,0
"3420 pickens ln, pleasanton, ca 94588",Townhouse,94588,995000,4,2,1856,2843,112,536,210.0,37.69439600000001,-121.8776743,23,9,6,1,134451,85.91,87.06,84.76,1,0
"3710 oak brook ct, pleasanton, ca 94588",Single Family Residential,94588,1150000,3,2,1668,6914,126,689,33.0,37.6967654,-121.8660676,48,9,6,1,134451,85.91,87.06,84.76,1,0
"2530 glen isle ave, pleasanton, ca 94588",Single Family Residential,94588,1059000,4,2,2330,3397,89,455,214.0,37.6888475,-121.8688579,28,9,6,1,134451,85.91,87.06,84.76,1,0
"3429 kamp dr, pleasanton, ca 94588",Single Family Residential,94588,1510000,5,3,2541,9706,111,594,0.0,37.6803145,-121.8667792,32,9,6,1,134451,85.91,87.06,84.76,1,0
"3614 chillingham ct, pleasanton, ca 94588",Single Family Residential,94588,1400000,4,2,2104,7362,3,665,33.0,37.6961276,-121.8740946,52,9,6,1,134451,85.91,87.06,84.76,1,0
"4419 shearwater ct, pleasanton, ca 94566",Single Family Residential,94566,1475000,4,2,2193,14296,77,673,0.0,37.6804575,-121.8756955,50,8,9,0,126782,80.07,79.57,80.57,1,0
"2289 delucchi dr, pleasanton, ca 94588",Single Family Residential,94588,1100000,4,2,1738,3731,1,633,12.0,37.6862268,-121.8716988,36,9,6,1,134451,85.91,87.06,84.76,1,0
"3428 virgil cir, pleasanton, ca 94588",Single Family Residential,94588,1270000,4,2,2054,9070,98,618,0.0,37.6789288,-121.900973,40,9,6,1,134451,85.91,87.06,84.76,1,0
"3599 carlsbad ct, pleasanton, ca 94588",Single Family Residential,94588,1113000,3,2,2058,7718,91,541,0.0,37.6781602,-121.9037738,52,9,6,1,134451,85.91,87.06,84.76,1,0
"3279 cheryl cir, pleasanton, ca 94588",Single Family Residential,94588,1237000,3,2,1673,7943,45,739,0.0,37.6813014,-121.8989945,36,9,6,1,134451,85.91,87.06,84.76,1,0
"2748 calle de la loma, pleasanton, ca 94566",Single Family Residential,94566,1715000,5,3,3200,7127,50,536,0.0,37.6707888,-121.90204,32,8,9,0,126782,80.07,79.57,80.57,1,0
"7887 medinah ct, pleasanton, ca 94588",Single Family Residential,94588,1495000,4,3,3021,5949,57,495,380.0,37.6481749,-121.9020844,27,9,6,1,134451,85.91,87.06,84.76,1,0
"3002 paseo granada, pleasanton, ca 94566",Single Family Residential,94566,1446125,5,3,3100,7000,168,466,0.0,37.6700834,-121.9017732,32,8,9,0,126782,80.07,79.57,80.57,1,0
"6025 via de los cerros, pleasanton, ca 94566",Single Family Residential,94566,825000,2,2,1241,4094,143,665,0.0,37.67220560000001,-121.8998504,36,8,9,0,126782,80.07,79.57,80.57,1,0
"1504 brookline loop, pleasanton, ca 94566",Single Family Residential,94566,1750000,4,4,3673,4000,100,476,271.0,37.6549977,-121.8958284,5,8,9,0,126782,80.07,79.57,80.57,1,0
"9044 longview dr, pleasanton, ca 94588",Single Family Residential,94588,1575000,4,4,3318,5760,39,475,0.0,37.6467779,-121.9087751,42,9,6,1,134451,85.91,87.06,84.76,1,0
"7961 spyglass ct, pleasanton, ca 94588",Single Family Residential,94588,1290000,3,2,2523,6766,65,511,380.0,37.6476639,-121.9032848,30,9,6,1,134451,85.91,87.06,84.76,1,0
"8104 ensenada dr #2, pleasanton, ca 94588",Condo/Co-op,94588,499000,2,1,903,0,98,553,340.0,37.6507347,-121.9043962,49,9,6,1,134451,85.91,87.06,84.76,1,0
"2435 crestline rd, pleasanton, ca 94566",Single Family Residential,94566,1305000,4,2,1894,7527,52,689,0.0,37.6786902,-121.8877236,54,8,9,0,126782,80.07,79.57,80.57,1,0
"1331 valley ave, pleasanton, ca 94566",Single Family Residential,94566,1410000,4,2,2780,5465,126,507,110.0,37.653922,-121.893868,18,8,9,0,126782,80.07,79.57,80.57,1,0
"2248 crestline rd, pleasanton, ca 94566",Single Family Residential,94566,1310000,4,2,2303,6935,147,569,0.0,37.6753495,-121.8882571,56,8,9,0,126782,80.07,79.57,80.57,1,0
"248 tomas way, pleasanton, ca 94566",Single Family Residential,94566,1245000,3,2,1600,4663,84,778,65.0,37.6495398,-121.87914170000002,37,8,9,0,126782,80.07,79.57,80.57,1,0
"2626 laramie gate cir, pleasanton, ca 94566",Single Family Residential,94566,1117000,3,2,1614,8989,114,692,0.0,37.68571370000001,-121.8796754,36,8,9,0,126782,80.07,79.57,80.57,1,0
"2318 tanager dr, pleasanton, ca 94566",Single Family Residential,94566,950000,4,2,1650,8392,163,576,0.0,37.6820334,-121.8779189,51,8,9,0,126782,80.07,79.57,80.57,1,0
"1872 w lagoon rd, pleasanton, ca 94566",Single Family Residential,94566,1880000,5,4,3722,7038,101,505,0.0,37.6516741,-121.8987278,17,8,9,0,126782,80.07,79.57,80.57,1,0
"1225 royal creek ct, pleasanton, ca 94566",Single Family Residential,94566,1615000,5,4,3265,6103,37,495,0.0,37.6480986,-121.8954378,17,8,9,0,126782,80.07,79.57,80.57,1,0
"6768 paseo san leon, pleasanton, ca 94566",Single Family Residential,94566,1350000,4,3,2634,5000,91,513,0.0,37.6743389,-121.9040405,32,8,9,0,126782,80.07,79.57,80.57,1,0
"4754 mason st, pleasanton, ca 94588",Single Family Residential,94588,904800,3,2,1579,6500,155,573,0.0,37.6885019,-121.9119092,45,9,6,1,134451,85.91,87.06,84.76,1,0
"6461 inglewood dr, pleasanton, ca 94588",Single Family Residential,94588,971000,3,2,1436,6363,91,676,0.0,37.6876999,-121.9091085,53,9,6,1,134451,85.91,87.06,84.76,1,0
"1363 vailwood ct, pleasanton, ca 94566",Single Family Residential,94566,1200000,4,3,2110,9515,128,569,0.0,37.6698455,-121.8811205,52,8,9,0,126782,80.07,79.57,80.57,1,0
"5589 corte sonora, pleasanton, ca 94566",Single Family Residential,94566,1130000,3,2,1886,7240,148,599,0.0,37.6693593,-121.8908804,53,8,9,0,126782,80.07,79.57,80.57,1,0
"4453 comanche way, pleasanton, ca 94588",Condo/Co-op,94588,540000,2,1,884,1656,78,611,292.0,37.691182,-121.87927,50,9,6,1,134451,85.91,87.06,84.76,1,0
"5838 arthur dr, pleasanton, ca 94588",Single Family Residential,94588,1450000,4,3,2347,8930,78,618,0.0,37.6803888,-121.8991057,37,9,6,1,134451,85.91,87.06,84.76,1,0
"1679 tanglewood ct, pleasanton, ca 94566",Single Family Residential,94566,1400000,4,2,2076,7280,31,674,0.0,37.6717636,-121.8836995,57,8,9,0,126782,80.07,79.57,80.57,1,0
"5702 san carlos way, pleasanton, ca 94566",Single Family Residential,94566,1300000,3,2,2547,7348,18,510,0.0,37.647286,-121.8777402,49,8,9,0,126782,80.07,79.57,80.57,1,0
"2281 doccia ct, pleasanton, ca 94566",Single Family Residential,94566,1900000,5,3,3396,9151,45,559,240.0,37.6407944,-121.8186499,24,8,9,0,126782,80.07,79.57,80.57,1,0
"2341 romano cir, pleasanton, ca 94566",Single Family Residential,94566,1875000,4,4,3538,9484,137,530,240.0,37.6392801,-121.818205,20,8,9,0,126782,80.07,79.57,80.57,1,0
"865 concord st, pleasanton, ca 94566",Single Family Residential,94566,1275000,4,2,1993,11416,91,640,0.0,37.6585541,-121.8571283,46,8,9,0,126782,80.07,79.57,80.57,1,0
"169 wild flower ln, pleasanton, ca 94566",Single Family Residential,94566,1040000,4,3,1986,3863,171,524,90.0,37.664572,-121.8600192,30,8,9,0,126782,80.07,79.57,80.57,1,0
"2264 raven rd, pleasanton, ca 94566",Single Family Residential,94566,1400000,4,2,2046,7307,95,684,0.0,37.6779703,-121.8838996,54,8,9,0,126782,80.07,79.57,80.57,1,0
"456 amaral cir, pleasanton, ca 94566",Single Family Residential,94566,1150000,4,2,1411,6615,31,815,0.0,37.6609625,-121.8658008,69,8,9,0,126782,80.07,79.57,80.57,1,0
"3469 bernal, pleasanton, ca 94566",Single Family Residential,94566,789000,2,1,923,7788,99,855,0.0,37.6634012,-121.856817,70,8,9,0,126782,80.07,79.57,80.57,1,0
"4050 rennellwood way, pleasanton, ca 94566",Single Family Residential,94566,930000,3,2,1614,3486,147,576,0.0,37.6796001,-121.8700256,45,8,9,0,126782,80.07,79.57,80.57,1,0
"671 concord pl, pleasanton, ca 94566",Townhouse,94566,572000,2,2,1096,829,91,522,298.0,37.6607132,-121.8557045,36,8,9,0,126782,80.07,79.57,80.57,1,0
"523 saint john st, pleasanton, ca 94566",Townhouse,94566,730000,2,2,1287,1151,151,567,544.0,37.6647887,-121.8758511,32,8,9,0,126782,80.07,79.57,80.57,1,0
"1639 bivar ct, pleasanton, ca 94566",Single Family Residential,94566,934000,3,2,1104,6912,121,846,0.0,37.67565250000001,-121.8703369,56,8,9,0,126782,80.07,79.57,80.57,1,0
"5122 black ave, pleasanton, ca 94566",Single Family Residential,94566,1280000,4,2,1675,8362,57,764,0.0,37.6720048,-121.88532250000002,57,8,9,0,126782,80.07,79.57,80.57,1,0
"2442 crestline rd, pleasanton, ca 94566",Single Family Residential,94566,1178000,3,2,1730,8240,91,681,0.0,37.6792568,-121.8874568,54,8,9,0,126782,80.07,79.57,80.57,1,0
"4332 2nd st, pleasanton, ca 94566",Single Family Residential,94566,1504332,3,2,1878,7500,176,801,0.0,37.6610628,-121.8705831,70,8,9,0,126782,80.07,79.57,80.57,1,0
"4613 shasta ct, pleasanton, ca 94566",Single Family Residential,94566,1025000,3,2,1813,8184,92,565,0.0,37.6841656,-121.87854140000002,50,8,9,0,126782,80.07,79.57,80.57,1,0
"4129 school st, pleasanton, ca 94566",Single Family Residential,94566,1110000,3,2,1777,6370,134,625,0.0,37.668913,-121.870537,66,8,9,0,126782,80.07,79.57,80.57,1,0
"819 division st, pleasanton, ca 94566",Condo/Co-op,94566,406500,1,1,600,0,45,678,494.0,37.6647633,-121.880787,62,8,9,0,126782,80.07,79.57,80.57,1,0
"4827 ganner ct, pleasanton, ca 94566",Single Family Residential,94566,1610000,4,4,3059,9855,39,526,0.0,37.6824901,-121.8818097,50,8,9,0,126782,80.07,79.57,80.57,1,0
"1807 begonia ct, pleasanton, ca 94588",Single Family Residential,94588,1688000,4,3,2541,7879,43,664,0.0,37.6809344,-121.8675797,32,9,6,1,134451,85.91,87.06,84.76,1,0
"4007 suffolk way, pleasanton, ca 94588",Single Family Residential,94588,1250000,4,3,2440,6957,84,512,31.0,37.6924135,-121.8709595,53,9,6,1,134451,85.91,87.06,84.76,1,0
"188 valletta ln, pleasanton, ca 94566",Single Family Residential,94566,810000,3,3,1755,2018,95,462,0.0,37.66245670000001,-121.8699811,5,8,9,0,126782,80.07,79.57,80.57,1,0
"274 birch creek dr, pleasanton, ca 94566",Townhouse,94566,725000,2,2,1221,1237,102,594,379.0,37.6636305,-121.8646445,35,8,9,0,126782,80.07,79.57,80.57,1,0
"286 birch creek dr, pleasanton, ca 94566",Townhouse,94566,619000,2,2,860,1823,94,720,350.0,37.663399,-121.864428,35,8,9,0,126782,80.07,79.57,80.57,1,0
"4018 san giorgio ct, pleasanton, ca 94588",Townhouse,94588,830000,3,2,1503,1184,92,552,239.0,37.69403,-121.891831,24,9,6,1,134451,85.91,87.06,84.76,1,0
"3973 eilene ct, pleasanton, ca 94588",Single Family Residential,94588,885000,2,2,1314,4678,64,674,0.0,37.6843917,-121.8705148,32,9,6,1,134451,85.91,87.06,84.76,1,0
"220 kottinger dr, pleasanton, ca 94566",Single Family Residential,94566,850000,2,1,869,3056,21,978,0.0,37.6620404,-121.8698279,28,8,9,0,126782,80.07,79.57,80.57,1,0
"4099 stanley blvd, pleasanton, ca 94566",Townhouse,94566,850000,3,2,1456,1730,32,584,319.0,37.6666663,-121.8706037,33,8,9,0,126782,80.07,79.57,80.57,1,0
"2665 starling ct, pleasanton, ca 94566",Single Family Residential,94566,1520000,4,2,2235,7946,17,680,0.0,37.6782029,-121.889591,53,8,9,0,126782,80.07,79.57,80.57,1,0
"282 trenton cir, pleasanton, ca 94566",Single Family Residential,94566,899000,3,2,1075,3700,17,836,110.0,37.667752,-121.8681134,27,8,9,0,126782,80.07,79.57,80.57,1,0
"5586 black, pleasanton, ca 94566",Single Family Residential,94566,1217000,3,2,1673,6915,21,727,0.0,37.6704228,-121.8913251,52,8,9,0,126782,80.07,79.57,80.57,1,0
"2964 garden creek cir, pleasanton, ca 94588",Single Family Residential,94588,1120000,4,2,2330,4744,16,481,215.0,37.6910353,-121.8694475,28,9,6,1,134451,85.91,87.06,84.76,1,0
"3861 stone pointe way, pleasanton, ca 94588",Single Family Residential,94588,1080000,3,2,1504,4017,17,718,167.0,37.6901225,-121.8701813,28,9,6,1,134451,85.91,87.06,84.76,1,0
"2290 kilkare rd, sunol, ca 94586",Single Family Residential,94586,700000,2,1,1080,6006,25,648,40.0,37.6257009,-121.9114646,43,10,1,0,89505,82.0071573604059,87.33157475773004,76.68402976465252,0,0
"766 neal pl, pleasanton, ca 94566",Single Family Residential,94566,1200000,5,3,2220,7244,150,541,0.0,37.6563723,-121.8645111,53,8,9,0,126782,80.07,79.57,80.57,1,0
"750 bonita ave, pleasanton, ca 94566",Single Family Residential,94566,1000000,4,2,2109,8400,95,474,0.0,37.6568162,-121.8635327,53,8,9,0,126782,80.07,79.57,80.57,1,0
"5703 san antonio st, pleasanton, ca 94566",Single Family Residential,94566,1192000,4,2,1877,6825,171,635,0.0,37.6471528,-121.8756288,52,8,9,0,126782,80.07,79.57,80.57,1,0
"500 e angela, pleasanton, ca 94566",Single Family Residential,94566,1079000,3,2,1359,5410,133,794,0.0,37.6568274,-121.8715163,78,8,9,0,126782,80.07,79.57,80.57,1,0
"4233 sharab ct, pleasanton, ca 94566",Single Family Residential,94566,1215000,4,3,1825,15000,109,666,0.0,37.656974,-121.8625098,56,8,9,0,126782,80.07,79.57,80.57,1,0
"6523 amber ln, pleasanton, ca 94566",Single Family Residential,94566,1325000,3,2,1885,11731,66,703,0.0,37.6408666,-121.877363,53,8,9,0,126782,80.07,79.57,80.57,1,0
"924 e mockingbird ln, pleasanton, ca 94566",Single Family Residential,94566,1885000,3,2,1600,5760,112,1178,0.0,37.6393428,-121.8723506,53,8,9,0,126782,80.07,79.57,80.57,1,0
"725 crystal ln, pleasanton, ca 94566",Single Family Residential,94566,1675000,4,4,3030,6904,136,553,53.0,37.6502119,-121.8711818,32,8,9,0,126782,80.07,79.57,80.57,1,0
"655 neal st, pleasanton, ca 94566",Single Family Residential,94566,1100000,3,2,1379,7914,106,798,0.0,37.6564283,-121.8666903,64,8,9,0,126782,80.07,79.57,80.57,1,0
"4625 mirador dr, pleasanton, ca 94566",Single Family Residential,94566,1415000,3,2,2240,10987,127,632,0.0,37.65281629999999,-121.8682468,24,8,9,0,126782,80.07,79.57,80.57,1,0
"720 mockingbird ln, pleasanton, ca 94566",Single Family Residential,94566,1550000,4,3,2151,5760,143,721,0.0,37.6401528,-121.8768739,53,8,9,0,126782,80.07,79.57,80.57,1,0
"814 bonde, pleasanton, ca 94566",Single Family Residential,94566,955000,5,2,2165,8390,85,441,0.0,37.6541426,-121.8649558,58,8,9,0,126782,80.07,79.57,80.57,1,0
"950 sunset creek ln, pleasanton, ca 94566",Single Family Residential,94566,1850000,5,4,3246,12535,161,570,85.0,37.6445904,-121.8715154,21,8,9,0,126782,80.07,79.57,80.57,1,0
"572 sycamore rd, pleasanton, ca 94566",Single Family Residential,94566,1850000,5,3,2600,21747,21,712,0.0,37.6429591,-121.8766365,23,8,9,0,126782,80.07,79.57,80.57,1,0
"878 sylvaner dr, pleasanton, ca 94566",Single Family Residential,94566,1220000,4,2,1601,7221,91,762,0.0,37.6604133,-121.8490112,46,8,9,0,126782,80.07,79.57,80.57,1,0
"638 marsala ct, pleasanton, ca 94566",Single Family Residential,94566,1327638,4,2,2050,14399,112,648,0.0,37.6637606,-121.84883329999998,48,8,9,0,126782,80.07,79.57,80.57,1,0
"7222 carneros ln, dublin, ca 94568",Single Family Residential,94568,980000,4,4,2210,1850,100,443,232.0,37.736436,-121.874492,3,8,11,1,119637,83.72,94.25,73.19,0,0
"7052 kylemore cir, dublin, ca 94568",Single Family Residential,94568,1479800,4,3,2998,4746,63,494,220.0,37.73556,-121.868705,4,8,11,1,119637,83.72,94.25,73.19,0,0
"7374 mount veeder rd, dublin, ca 94568",Single Family Residential,94568,1150000,4,3,2156,2990,136,533,237.0,37.737721,-121.875146,3,8,11,1,119637,83.72,94.25,73.19,0,0
"60 sunflower hill way, pleasanton, ca 94566",Single Family Residential,94566,1265950,4,3,2301,2688,14,550,189.0,37.666943,-121.864692,1,8,9,0,126782,80.07,79.57,80.57,1,0
"8020 mountain view dr unit b, pleasanton, ca 94588",Condo/Co-op,94588,670000,3,2,1257,0,65,533,564.0,37.6967005,-121.9475811,30,9,6,1,134451,85.91,87.06,84.76,1,0
"7815 canyon meadow cir unit g, pleasanton, ca 94588",Condo/Co-op,94588,575000,2,2,1043,0,50,551,499.0,37.696793,-121.9509581,30,9,6,1,134451,85.91,87.06,84.76,1,0
"4630 mohr ave, pleasanton, ca 94566",Single Family Residential,94566,1200000,3,2,1813,8829,57,662,0.0,37.6815316,-121.8798977,50,8,9,0,126782,80.07,79.57,80.57,1,0
"3574 ballantyne dr, pleasanton, ca 94588",Single Family Residential,94588,1230000,4,2,2163,7000,127,569,0.0,37.6983597,-121.8606419,36,9,6,1,134451,85.91,87.06,84.76,1,0
"4837 saginaw cir, pleasanton, ca 94588",Townhouse,94588,655000,3,2,1130,901,24,580,292.0,37.690554,-121.881676,48,9,6,1,134451,85.91,87.06,84.76,1,0
"4336 1st st, pleasanton, ca 94566",Single Family Residential,94566,982500,3,2,1419,5000,57,692,0.0,37.6612564,-121.8716377,24,8,9,0,126782,80.07,79.57,80.57,1,0
"4173 crisfield ln, pleasanton, ca 94566",Single Family Residential,94566,1175000,4,2,1690,6663,39,695,0.0,37.6816888,-121.8730677,46,8,9,0,126782,80.07,79.57,80.57,1,0
"4330 fairlands dr, pleasanton, ca 94588",Townhouse,94588,865000,3,2,1596,1901,42,542,420.0,37.6936539,-121.8761624,36,9,6,1,134451,85.91,87.06,84.76,1,0
"2890 victoria ridge ct, pleasanton, ca 94566",Single Family Residential,94566,1505000,3,5,2597,10249,105,580,0.0,37.6627927,-121.8473209,30,8,9,0,126782,80.07,79.57,80.57,1,0
"4429 valley ave, pleasanton, ca 94566",Townhouse,94566,680000,2,2,1376,2851,67,494,295.0,37.679378,-121.877289,35,8,9,0,126782,80.07,79.57,80.57,1,0
"2904 lethbridge ct, pleasanton, ca 94588",Single Family Residential,94588,1278000,4,2,2150,8299,157,594,35.0,37.6946323,-121.8599748,36,9,6,1,134451,85.91,87.06,84.76,1,0
"1078 vintner way, pleasanton, ca 94566",Single Family Residential,94566,1715000,4,3,3240,9814,30,529,0.0,37.6582315,-121.8482995,50,8,9,0,126782,80.07,79.57,80.57,1,0
"3734 kamp dr, pleasanton, ca 94588",Single Family Residential,94588,765000,2,2,1076,4500,17,711,0.0,37.685667,-121.8685136,33,9,6,1,134451,85.91,87.06,84.76,1,0
"3338 santa rita rd, pleasanton, ca 94566",Townhouse,94566,570000,2,2,1146,780,9,497,375.0,37.692838,-121.877871,38,8,9,0,126782,80.07,79.57,80.57,1,0
"3872 cheshire ct, pleasanton, ca 94588",Single Family Residential,94588,1415000,4,3,2150,10854,18,658,33.0,37.6986108,-121.8685136,36,9,6,1,134451,85.91,87.06,84.76,1,0
"548 e angela st, pleasanton, ca 94566",Single Family Residential,94566,1075000,3,2,1249,7000,53,861,0.0,37.6562862,-121.8706482,65,8,9,0,126782,80.07,79.57,80.57,1,0
"6899 alamilla dr, dublin, ca 94568",Single Family Residential,94568,1290000,4,3,2588,4389,63,498,142.0,37.70026729999999,-121.9362394,5,8,11,1,119637,83.72,94.25,73.19,0,0
"11972 glaskin pl, dublin, ca 94568",Single Family Residential,94568,1050000,4,2,2008,2700,29,523,143.0,37.7007464,-121.9359904,4,8,11,1,119637,83.72,94.25,73.19,0,0
"5226 riverdale ct, pleasanton, ca 94588",Townhouse,94588,910000,4,2,1948,2660,119,467,470.0,37.688423,-121.920819,34,9,6,1,134451,85.91,87.06,84.76,1,0
"4489 sierrawood ln, pleasanton, ca 94588",Single Family Residential,94588,1035000,3,2,1355,8707,164,764,32.0,37.6806471,-121.9173102,55,9,6,1,134451,85.91,87.06,84.76,1,0
"7432 highland oaks dr, pleasanton, ca 94588",Single Family Residential,94588,1175000,4,2,1854,7414,30,634,33.0,37.6822055,-121.9179103,56,9,6,1,134451,85.91,87.06,84.76,1,0
"7657 flagstone, pleasanton, ca 94588",Single Family Residential,94588,1150000,3,2,1710,6751,52,673,0.0,37.6826324,-121.9201551,52,9,6,1,134451,85.91,87.06,84.76,1,0
"5170 springdale ave, pleasanton, ca 94588",Single Family Residential,94588,1250000,4,2,2587,6800,106,483,0.0,37.6861344,-121.9219997,32,9,6,1,134451,85.91,87.06,84.76,1,0
"3362 prairie dr, pleasanton, ca 94588",Single Family Residential,94588,1998888,5,4,3490,12945,30,573,35.0,37.6648,-121.91304270000002,36,9,6,1,134451,85.91,87.06,84.76,1,0
"5507 baldwin way, pleasanton, ca 94588",Townhouse,94588,765000,2,2,1501,2324,24,510,415.0,37.689201,-121.927126,30,9,6,1,134451,85.91,87.06,84.76,1,0
"7308 stonedale dr, pleasanton, ca 94588",Townhouse,94588,825000,3,2,1525,2660,39,541,470.0,37.688603,-121.919199,34,9,6,1,134451,85.91,87.06,84.76,1,0
"7825 creekside dr #12, pleasanton, ca 94588",Townhouse,94588,784000,3,2,1614,1657,133,486,415.0,37.688992,-121.927432,28,9,6,1,134451,85.91,87.06,84.76,1,0
"7435 maywood dr, pleasanton, ca 94588",Townhouse,94588,890000,3,2,1630,2660,44,546,470.0,37.687034,-121.920014,48,9,6,1,134451,85.91,87.06,84.76,1,0
"1437 calle enrique, pleasanton, ca 94566",Townhouse,94566,710001,2,2,941,2008,15,755,450.0,37.668195,-121.886689,50,8,9,0,126782,80.07,79.57,80.57,1,0
"3455 zion canyon ct, pleasanton, ca 94588",Single Family Residential,94588,1108000,3,2,1386,7127,16,799,0.0,37.6756313,-121.9054632,50,9,6,1,134451,85.91,87.06,84.76,1,0
"3579 ballantyne dr, pleasanton, ca 94588",Single Family Residential,94588,1275000,4,2,2126,6500,99,600,0.0,37.6987631,-121.8610421,36,9,6,1,134451,85.91,87.06,84.76,1,0
"7166 stags leap ln, dublin, ca 94568",Single Family Residential,94568,1250000,3,2,2258,3564,73,554,227.0,37.73662720000001,-121.87171229999998,3,8,11,1,119637,83.72,94.25,73.19,0,0
"4270 oak knoll dr, dublin, ca 94568",Single Family Residential,94568,1435000,5,4,3463,5197,140,414,232.0,37.7346935,-121.8766071,4,8,11,1,119637,83.72,94.25,73.19,0,0
"3423 gravina pl, pleasanton, ca 94566",Single Family Residential,94566,1735000,4,3,3252,7000,111,534,0.0,37.6409185,-121.8206075,24,8,9,0,126782,80.07,79.57,80.57,1,0
"3843 belmont way, pleasanton, ca 94588",Townhouse,94588,615000,3,2,1242,866,176,495,225.0,37.700451,-121.867331,41,9,6,1,134451,85.91,87.06,84.76,1,0
"1176 concord st, pleasanton, ca 94566",Single Family Residential,94566,1310000,4,3,2372,8575,155,552,0.0,37.65545529999999,-121.8542374,53,8,9,0,126782,80.07,79.57,80.57,1,0
"3433 touriga dr, pleasanton, ca 94566",Single Family Residential,94566,1140000,4,2,2003,7100,155,569,0.0,37.6605753,-121.8527696,49,8,9,0,126782,80.07,79.57,80.57,1,0
"3438 smoketree commons dr, pleasanton, ca 94566",Condo/Co-op,94566,582500,2,2,938,0,78,621,429.0,37.663859,-121.8557351,32,8,9,0,126782,80.07,79.57,80.57,1,0
"456 cabonia ct, pleasanton, ca 94566",Single Family Residential,94566,1603700,4,3,2806,8410,158,572,240.0,37.6416409,-121.8000955,25,8,9,0,126782,80.07,79.57,80.57,1,0
"11579 circle way, dublin, ca 94568",Single Family Residential,94568,1273888,4,2,1971,8787,22,646,0.0,37.7003281,-121.9428225,57,8,11,1,119637,83.72,94.25,73.19,0,0
"833 kottinger dr, pleasanton, ca 94566",Single Family Residential,94566,1230000,4,3,1950,7422,155,631,0.0,37.6582493,-121.8617537,48,8,9,0,126782,80.07,79.57,80.57,1,0
"4646 1st st, pleasanton, ca 94566",Single Family Residential,94566,935000,3,1,1184,5000,140,790,0.0,37.6582076,-121.8749618,73,8,9,0,126782,80.07,79.57,80.57,1,0
"4228 school, pleasanton, ca 94566",Single Family Residential,94566,1080000,3,2,1806,7350,143,598,0.0,37.66814160000001,-121.871671,66,8,9,0,126782,80.07,79.57,80.57,1,0
"815 division st, pleasanton, ca 94566",Condo/Co-op,94566,390000,1,1,600,0,134,650,494.0,37.664968,-121.880643,62,8,9,0,126782,80.07,79.57,80.57,1,0
"4156 vineyard ave, pleasanton, ca 94566",Single Family Residential,94566,1060000,4,3,2294,6094,56,462,0.0,37.6629109,-121.8687804,111,8,9,0,126782,80.07,79.57,80.57,1,0
"3820 stanley blvd, pleasanton, ca 94566",Single Family Residential,94566,1169950,4,3,2301,2380,39,508,189.0,37.667336,-121.865044,2,8,9,0,126782,80.07,79.57,80.57,1,0
"1884 paseo del cajon, pleasanton, ca 94566",Single Family Residential,94566,1405000,5,2,2372,8040,44,592,0.0,37.6687366,-121.890836,50,8,9,0,126782,80.07,79.57,80.57,1,0
"4275 oak knoll dr, dublin, ca 94568",Single Family Residential,94568,1470000,4,6,3995,4371,142,368,232.0,37.7350885,-121.8766423,4,8,11,1,119637,83.72,94.25,73.19,0,0
"4521 alexander valley way, dublin, ca 94568",Single Family Residential,94568,1520000,4,4,3825,6691,149,397,230.0,37.7370352,-121.879961,4,8,11,1,119637,83.72,94.25,73.19,0,0
"4269 oak knoll dr, dublin, ca 94568",Single Family Residential,94568,1465000,4,3,2944,4364,32,498,235.0,37.735026,-121.876477,4,8,11,1,119637,83.72,94.25,73.19,0,0
"6716 corte del vis, pleasanton, ca 94566",Single Family Residential,94566,1210000,4,2,2013,5845,148,601,0.0,37.6727658,-121.9071525,34,8,9,0,126782,80.07,79.57,80.57,1,0
"2326 meadowlark dr, pleasanton, ca 94566",Single Family Residential,94566,1325000,4,2,2262,5040,165,586,135.0,37.6569087,-121.9050186,27,8,9,0,126782,80.07,79.57,80.57,1,0
"3469 virgil cir, pleasanton, ca 94588",Single Family Residential,94588,1260000,4,2,2054,9007,150,613,0.0,37.6798699,-121.9000838,37,9,6,1,134451,85.91,87.06,84.76,1,0
"1472 brookline loop, pleasanton, ca 94566",Single Family Residential,94566,1700000,4,4,3512,4000,157,484,271.0,37.6537499,-121.8948153,6,8,9,0,126782,80.07,79.57,80.57,1,0
"3940 alma ct, pleasanton, ca 94588",Single Family Residential,94588,1010000,3,2,1372,6200,144,736,0.0,37.68012589999999,-121.9087973,50,9,6,1,134451,85.91,87.06,84.76,1,0
"6045 acadia ct, pleasanton, ca 94588",Single Family Residential,94588,980000,3,2,1386,6000,168,707,0.0,37.676944,-121.9022845,50,9,6,1,134451,85.91,87.06,84.76,1,0
"4796 corwin ct, pleasanton, ca 94588",Single Family Residential,94588,1025000,3,2,1372,6200,121,747,0.0,37.6900792,-121.9103977,53,9,6,1,134451,85.91,87.06,84.76,1,0
"7441 maywood dr, pleasanton, ca 94588",Townhouse,94588,870000,3,2,1851,2613,132,470,470.0,37.687031,-121.920111,47,9,6,1,134451,85.91,87.06,84.76,1,0
"3010 paseo granada, pleasanton, ca 94566",Single Family Residential,94566,1520000,4,3,2662,6500,115,571,0.0,37.6699925,-121.901951,30,8,9,0,126782,80.07,79.57,80.57,1,0
"5221 springdale ave, pleasanton, ca 94588",Townhouse,94588,835000,3,2,1630,2660,115,512,470.0,37.687079,-121.922093,48,9,6,1,134451,85.91,87.06,84.76,1,0
"2392 corte de la jara, pleasanton, ca 94566",Single Family Residential,94566,1365000,4,3,2102,10131,116,649,0.0,37.6676116,-121.8964381,50,8,9,0,126782,80.07,79.57,80.57,1,0
"4738 mason st, pleasanton, ca 94588",Single Family Residential,94588,1125000,4,2,1816,6501,93,619,0.0,37.6877206,-121.9117091,46,9,6,1,134451,85.91,87.06,84.76,1,0
"4123 payne rd, pleasanton, ca 94588",Single Family Residential,94588,1160000,4,2,1603,6500,70,724,0.0,37.6814545,-121.9096642,50,9,6,1,134451,85.91,87.06,84.76,1,0
"2207 segundo ct #2, pleasanton, ca 94588",Condo/Co-op,94588,495000,2,1,903,0,111,548,0.0,37.6492783,-121.9036404,49,9,6,1,134451,85.91,87.06,84.76,1,0
"2566 secretariat dr, pleasanton, ca 94566",Single Family Residential,94566,887850,3,2,1421,4752,67,625,0.0,37.675783,-121.894258,42,8,9,0,126782,80.07,79.57,80.57,1,0
"6872 herrin ct, pleasanton, ca 94588",Single Family Residential,94588,1020000,3,2,1372,6551,35,743,0.0,37.6891422,-121.9128871,45,9,6,1,134451,85.91,87.06,84.76,1,0
"7809 meadowbrook ct, pleasanton, ca 94588",Single Family Residential,94588,1300000,4,3,1674,8235,35,777,0.0,37.6855128,-121.92548899999998,51,9,6,1,134451,85.91,87.06,84.76,1,0
"7889 olive ct, pleasanton, ca 94588",Single Family Residential,94588,1460000,4,2,2319,14186,53,630,44.0,37.6754413,-121.9206218,50,9,6,1,134451,85.91,87.06,84.76,1,0
"7599 olive dr, pleasanton, ca 94588",Single Family Residential,94588,1200000,4,2,1826,6048,99,657,44.0,37.6765059,-121.9173991,48,9,6,1,134451,85.91,87.06,84.76,1,0
"7776 knollbrook dr, pleasanton, ca 94588",Single Family Residential,94588,1190000,3,2,1586,7686,44,750,0.0,37.6871937,-121.926178,46,9,6,1,134451,85.91,87.06,84.76,1,0
"7803 lafayette ct, pleasanton, ca 94588",Single Family Residential,94588,1500000,4,3,2547,11068,92,589,0.0,37.6833604,-121.9246889,26,9,6,1,134451,85.91,87.06,84.76,1,0
"7844 creekside dr, pleasanton, ca 94588",Townhouse,94588,835000,3,2,1614,2008,95,517,415.0,37.688498,-121.927558,30,9,6,1,134451,85.91,87.06,84.76,1,0
"6876 rayland ct, pleasanton, ca 94588",Single Family Residential,94588,947000,3,2,1372,6594,77,690,0.0,37.6884732,-121.9126871,45,9,6,1,134451,85.91,87.06,84.76,1,0
"5413 montalvo ct, pleasanton, ca 94588",Townhouse,94588,785000,2,2,1501,2112,11,523,415.0,37.689591,-121.926269,30,9,6,1,134451,85.91,87.06,84.76,1,0
"5348 brookside ct, pleasanton, ca 94588",Townhouse,94588,870000,3,2,1697,2660,60,513,470.0,37.6897189,-121.92306299999998,41,9,6,1,134451,85.91,87.06,84.76,1,0
"5364 brookside ct, pleasanton, ca 94588",Townhouse,94588,910000,3,2,1928,2660,11,472,470.0,37.689973,-121.92285,42,9,6,1,134451,85.91,87.06,84.76,1,0
"4235 lucero ct, pleasanton, ca 94588",Townhouse,94588,738000,2,3,1316,988,111,561,0.0,37.69603,-121.892152,22,9,6,1,134451,85.91,87.06,84.76,1,0
"3586 ballantyne dr, pleasanton, ca 94588",Single Family Residential,94588,1230000,4,2,2126,7242,114,579,0.0,37.6983299,-121.8621095,36,9,6,1,134451,85.91,87.06,84.76,1,0
"1772 baywood ct, pleasanton, ca 94566",Single Family Residential,94566,1241000,4,2,1882,7475,121,659,0.0,37.674206700000006,-121.8788749,55,8,9,0,126782,80.07,79.57,80.57,1,0
"3737 trenery dr, pleasanton, ca 94588",Single Family Residential,94588,1650000,3,2,2670,5760,129,618,0.0,37.6878848,-121.8649336,60,9,6,1,134451,85.91,87.06,84.76,1,0
"3122 gulfstream st, pleasanton, ca 94588",Single Family Residential,94588,1337000,5,2,2678,6794,144,499,33.0,37.69546810000001,-121.8660899,46,9,6,1,134451,85.91,87.06,84.76,1,0
"2046 eilene dr, pleasanton, ca 94588",Single Family Residential,94588,852000,2,2,1314,3471,150,648,0.0,37.6848354,-121.87015900000002,32,9,6,1,134451,85.91,87.06,84.76,1,0
"2167 alexander way, pleasanton, ca 94588",Single Family Residential,94588,890000,2,2,1429,4464,121,623,12.0,37.686723,-121.8746568,36,9,6,1,134451,85.91,87.06,84.76,1,0
"3151 gulfstream st, pleasanton, ca 94588",Single Family Residential,94588,1195000,4,2,1989,6217,169,601,33.0,37.6957903,-121.8655784,48,9,6,1,134451,85.91,87.06,84.76,1,0
"5376 mallard dr, pleasanton, ca 94566",Single Family Residential,94566,1240000,4,2,2172,8050,149,571,0.0,37.6788537,-121.8894799,49,8,9,0,126782,80.07,79.57,80.57,1,0
"5214 crestline way, pleasanton, ca 94566",Single Family Residential,94566,1250000,4,2,2047,8204,142,611,0.0,37.67633350000001,-121.8871011,56,8,9,0,126782,80.07,79.57,80.57,1,0
"5650 hansen dr, pleasanton, ca 94566",Single Family Residential,94566,1155000,4,2,1527,6700,135,756,0.0,37.6725463,-121.8935926,48,8,9,0,126782,80.07,79.57,80.57,1,0
"1342 kolln, pleasanton, ca 94566",Single Family Residential,94566,915000,3,2,1104,6500,122,829,0.0,37.6742069,-121.8690473,56,8,9,0,126782,80.07,79.57,80.57,1,0
"5886 northway rd, pleasanton, ca 94566",Single Family Residential,94566,930000,3,2,1421,6350,142,654,0.0,37.67638529999999,-121.8936667,42,8,9,0,126782,80.07,79.57,80.57,1,0
"3538 mendenhall ct, pleasanton, ca 94588",Single Family Residential,94588,1237375,4,3,1926,4918,172,642,0.0,37.6992019,-121.8590853,28,9,6,1,134451,85.91,87.06,84.76,1,0
"3759 rose rock cir, pleasanton, ca 94588",Single Family Residential,94588,1190000,4,2,2337,3554,31,509,218.0,37.6885074,-121.8696624,28,9,6,1,134451,85.91,87.06,84.76,1,0
"4332 fairlands dr, pleasanton, ca 94588",Townhouse,94588,840000,3,2,1596,1901,86,526,420.0,37.6933251,-121.8763848,40,9,6,1,134451,85.91,87.06,84.76,1,0
"5471 black ave #4, pleasanton, ca 94566",Townhouse,94566,775000,3,2,1690,5760,58,459,400.0,37.6725567,-121.8899226,39,8,9,0,126782,80.07,79.57,80.57,1,0
"4594 el dorado ct, pleasanton, ca 94566",Single Family Residential,94566,1404000,4,3,2421,10405,95,580,0.0,37.68090120000001,-121.87900829999998,52,8,9,0,126782,80.07,79.57,80.57,1,0
"2678 sanderling way, pleasanton, ca 94566",Single Family Residential,94566,1375000,4,2,1812,10012,80,759,0.0,37.6833735,-121.8843443,46,8,9,0,126782,80.07,79.57,80.57,1,0
"2946 garden creek cir, pleasanton, ca 94588",Single Family Residential,94588,915000,3,2,1388,3923,81,659,167.0,37.6910471,-121.8700923,29,9,6,1,134451,85.91,87.06,84.76,1,0
"4082 rennellwood way, pleasanton, ca 94566",Single Family Residential,94566,1015600,3,2,1751,3486,46,580,0.0,37.679945,-121.8696254,38,8,9,0,126782,80.07,79.57,80.57,1,0
"2357 fairfield ct, pleasanton, ca 94566",Single Family Residential,94566,1314000,4,2,2101,7038,112,625,0.0,37.6760152,-121.8904581,55,8,9,0,126782,80.07,79.57,80.57,1,0
"3218 balmoral ct, pleasanton, ca 94588",Single Family Residential,94588,1151000,4,2,1924,6200,149,598,31.0,37.693633,-121.8716933,52,9,6,1,134451,85.91,87.06,84.76,1,0
"2116 dena dr, concord, ca 94519",Single Family Residential,94519,900000,6,4,3313,6120,41,272,27.0,37.98874489999999,-122.023876,68,5,6,0,71190,91.03,89.7,92.35,1,0
"3641 clayton rd #22, concord, ca 94521",Condo/Co-op,94521,401000,3,2,1088,0,17,369,350.0,37.9703302,-122.0075803,40,5,9,0,89314,92.29,92.3,92.28,1,0
"3712 willow pass rd #40, concord, ca 94519",Condo/Co-op,94519,345000,2,2,1038,0,125,332,375.0,37.9869826,-122.00780729999998,42,5,6,0,71190,91.03,89.7,92.35,1,0
"844 audrey ct, pleasant hill, ca 94523",Single Family Residential,94523,862000,3,2,1238,7500,3,696,0.0,37.9647641,-122.0638808,71,6,12,0,86014,91.35,92.93,89.78,0,1
"2254 almond ave, concord, ca 94520",Single Family Residential,94520,540000,2,1,860,6250,91,628,0.0,37.9807271,-122.0348444,120,2,5,2,50181,93.7,93.26,94.15,1,0
"3712 willow pass rd #39, concord, ca 94519",Condo/Co-op,94519,360000,2,2,1038,0,76,347,375.0,37.9869281,-122.0078757,42,5,6,0,71190,91.03,89.7,92.35,1,0
"5455 kirkwood dr unit d2, concord, ca 94521",Condo/Co-op,94521,350000,2,1,891,0,9,393,375.0,37.9590347,-121.9449428,41,5,9,0,89314,92.29,92.3,92.28,1,0
"3114 san ramon rd, concord, ca 94519",Single Family Residential,94519,580000,3,1,1068,5400,83,543,0.0,37.98460470000001,-122.0221885,71,5,6,0,71190,91.03,89.7,92.35,1,0
"1012 panadero way, clayton, ca 94517",Single Family Residential,94517,915000,3,2,2364,12000,8,387,0.0,37.9395123,-121.9435336,63,8,2,0,127799,85.28,76.74,93.82,0,0
"1579 shirley dr, pleasant hill, ca 94523",Single Family Residential,94523,750000,3,1,1042,7500,177,720,0.0,37.9606306,-122.0619275,71,6,12,0,86014,91.35,92.93,89.78,0,1
"1370 san carlos ave, concord, ca 94518",Single Family Residential,94518,575000,2,1,786,8050,90,732,0.0,37.9708709,-122.0252527,78,4,6,0,76911,90.4,88.95,91.85,1,0
"1745 toyon dr, concord, ca 94520",Single Family Residential,94520,615000,3,2,1176,7200,128,523,0.0,37.9682089,-122.038441,66,2,5,2,50181,93.7,93.26,94.15,1,0
"1888 san vincente dr, concord, ca 94519",Single Family Residential,94519,585000,3,2,1033,8125,132,566,0.0,37.9865061,-122.0080654,72,5,6,0,71190,91.03,89.7,92.35,1,0
"4249 westwood ct, concord, ca 94521",Single Family Residential,94521,790000,4,2,1717,8000,17,460,0.0,37.9717861,-121.9835456,58,5,9,0,89314,92.29,92.3,92.28,1,0
"3112 concord blvd, concord, ca 94519",Single Family Residential,94519,630000,4,3,2018,5830,14,312,0.0,37.9772798,-122.0203233,83,5,6,0,71190,91.03,89.7,92.35,1,0
"5480 louisiana dr, concord, ca 94521",Single Family Residential,94521,710000,3,2,1235,8800,161,575,0.0,37.94323060000001,-121.9633304,57,5,9,0,89314,92.29,92.3,92.28,1,0
"3255 claudia dr, concord, ca 94519",Single Family Residential,94519,660000,4,2,1604,7100,17,411,13.0,37.9913816,-122.0328462,67,5,6,0,71190,91.03,89.7,92.35,1,0
"827 san miguel rd, concord, ca 94518",Single Family Residential,94518,770000,3,2,1704,8276,51,452,0.0,37.9476987,-122.0164595,52,4,6,0,76911,90.4,88.95,91.85,1,0
"3715 hillsborough dr, concord, ca 94520",Single Family Residential,94520,735000,3,2,1285,6300,56,572,0.0,38.0045545,-122.0307591,61,2,5,2,50181,93.7,93.26,94.15,1,0
"963 getoun dr, concord, ca 94518",Single Family Residential,94518,800000,4,2,1830,7000,17,437,0.0,37.9443009,-122.0371756,56,4,6,0,76911,90.4,88.95,91.85,1,0
"925 autumn brook pl, concord, ca 94518",Single Family Residential,94518,965000,5,3,2725,7418,111,354,294.0,37.9426347,-122.034004,3,4,6,0,76911,90.4,88.95,91.85,1,0
"200 sunspring ct, pleasant hill, ca 94523",Condo/Co-op,94523,589900,3,2,1371,1122,160,430,440.0,37.961194,-122.055059,36,6,12,0,86014,91.35,92.93,89.78,0,1
"1856 n 5th st, concord, ca 94519",Single Family Residential,94519,612900,3,2,1481,7150,147,414,0.0,37.97950529999999,-122.0196127,71,5,6,0,71190,91.03,89.7,92.35,1,0
"2138 beach st, concord, ca 94519",Single Family Residential,94519,500000,2,1,1062,5000,111,471,0.0,37.98177,-122.0301818,79,5,6,0,71190,91.03,89.7,92.35,1,0
"2351 charlotte ave, concord, ca 94518",Single Family Residential,94518,615000,3,2,1247,6900,31,493,0.0,37.9479985,-122.0257856,62,4,6,0,76911,90.4,88.95,91.85,1,0
"1327 arkell rd, walnut creek, ca 94598",Single Family Residential,94598,880000,3,2,1475,11250,108,597,0.0,37.9320359,-122.0361765,58,8,6,0,127767,91.22,93.16,89.29,1,0
"3704 northridge dr, concord, ca 94518",Single Family Residential,94518,860000,4,2,1950,13199,143,441,0.0,37.9587753,-122.014683,58,4,6,0,76911,90.4,88.95,91.85,1,0
"1166 briarwood way, walnut creek, ca 94597",Single Family Residential,94597,1400000,5,3,2684,17000,155,522,0.0,37.93294270000001,-122.0480982,22,8,2,1,92676,83.36,91.13,75.58,1,0
"4479 barberry ct, concord, ca 94521",Single Family Residential,94521,876810,4,2,1805,5520,94,486,97.0,37.9497868,-121.9910754,45,5,9,0,89314,92.29,92.3,92.28,1,0
"1464 dumaine st, concord, ca 94518",Single Family Residential,94518,735000,4,2,1796,3850,83,409,83.0,37.943144,-122.0435028,24,4,6,0,76911,90.4,88.95,91.85,1,0
"1489 bridge st, concord, ca 94518",Single Family Residential,94518,910000,5,3,2448,7144,23,372,0.0,37.9405308,-122.045856,19,4,6,0,76911,90.4,88.95,91.85,1,0
"1040 mohr ln unit d, concord, ca 94518",Condo/Co-op,94518,390000,2,1,854,0,24,457,330.0,37.9460391,-122.0454342,52,4,6,0,76911,90.4,88.95,91.85,1,0
"1825 silverwood dr, concord, ca 94519",Single Family Residential,94519,538000,3,2,1236,6000,148,435,0.0,37.9835943,-122.0006034,68,5,6,0,71190,91.03,89.7,92.35,1,0
"5008 laverne way, concord, ca 94521",Single Family Residential,94521,536000,3,2,1288,7000,83,416,0.0,37.958834,-121.9752822,61,5,9,0,89314,92.29,92.3,92.28,1,0
"4874 wolf way, concord, ca 94521",Townhouse,94521,520000,3,2,1378,1590,59,377,335.0,37.958813,-121.978057,48,5,9,0,89314,92.29,92.3,92.28,1,0
"1715 agadir st, concord, ca 94518",Single Family Residential,94518,750000,3,2,1523,7571,121,492,0.0,37.9438511,-122.0409276,61,4,6,0,76911,90.4,88.95,91.85,1,0
"2640 wisteria way, concord, ca 94519",Single Family Residential,94519,695000,3,4,1810,1954,41,384,220.0,37.97961,-122.0292049,8,5,6,0,71190,91.03,89.7,92.35,1,0
"4220 churchill dr, concord, ca 94521",Single Family Residential,94521,500000,3,2,1370,5760,160,365,0.0,37.956631,-122.0019804,65,5,9,0,89314,92.29,92.3,92.28,1,0
"1272 saddlehill ln, concord, ca 94521",Single Family Residential,94521,850000,4,2,2242,8890,13,379,32.0,37.9568228,-121.9869663,44,5,9,0,89314,92.29,92.3,92.28,1,0
"1155 kenwal rd unit c, concord, ca 94521",Townhouse,94521,400000,2,2,1016,780,28,394,425.0,37.948361,-121.964256,50,5,9,0,89314,92.29,92.3,92.28,1,0
"1907 beach st, concord, ca 94519",Single Family Residential,94519,680000,3,4,1729,1815,97,393,220.0,37.97909,-122.02938,7,5,6,0,71190,91.03,89.7,92.35,1,0
"1835 weaver ln, walnut creek, ca 94598",Single Family Residential,94598,1900000,4,2,3616,5760,111,525,0.0,37.9372267,-122.0345335,141,8,6,0,127767,91.22,93.16,89.29,1,0
"825 oak grove rd #62, concord, ca 94518",Condo/Co-op,94518,350000,2,2,922,0,97,380,382.0,37.9390324,-122.0272278,51,4,6,0,76911,90.4,88.95,91.85,1,0
"950 bannock ct, concord, ca 94518",Single Family Residential,94518,900950,4,2,1578,8000,55,571,0.0,37.94071270000001,-122.0429256,59,4,6,0,76911,90.4,88.95,91.85,1,0
"225 mayhew way #4, walnut creek, ca 94597",Townhouse,94597,575000,2,2,1196,0,108,481,502.0,37.9369995,-122.05179,38,8,2,1,92676,83.36,91.13,75.58,1,0
"1500 rugby ct, concord, ca 94518",Single Family Residential,94518,790000,3,2,1502,7000,83,526,0.0,37.9402996,-122.0451456,50,4,6,0,76911,90.4,88.95,91.85,1,0
"1921 chateau ct, walnut creek, ca 94598",Single Family Residential,94598,1137500,5,3,2686,12000,23,423,0.0,37.9369025,-122.0371978,48,8,6,0,127767,91.22,93.16,89.29,1,0
"1317 el camino dr, clayton, ca 94517",Single Family Residential,94517,725000,4,2,1618,11520,91,448,0.0,37.9415269,-121.9499329,61,8,2,0,127799,85.28,76.74,93.82,0,0
"48 eastbrook ct, clayton, ca 94517",Single Family Residential,94517,725000,3,2,1300,11000,105,558,0.0,37.9481234,-121.9493108,58,8,2,0,127799,85.28,76.74,93.82,0,0
"1908 camino estrada, concord, ca 94521",Single Family Residential,94521,825000,4,2,2196,8500,141,376,0.0,37.9556069,-121.9397783,45,5,9,0,89314,92.29,92.3,92.28,1,0
"5566 southbrook dr, clayton, ca 94517",Single Family Residential,94517,815000,4,2,2160,10400,35,377,0.0,37.9498726,-121.9499329,54,8,2,0,127799,85.28,76.74,93.82,0,0
"1413 delaware dr, concord, ca 94521",Single Family Residential,94521,625000,3,1,1018,8500,120,614,0.0,37.9470375,-121.9533324,62,5,9,0,89314,92.29,92.3,92.28,1,0
"5425 concord blvd unit d1, concord, ca 94521",Condo/Co-op,94521,308000,1,1,762,0,65,404,361.0,37.9563653,-121.9501702,41,5,9,0,89314,92.29,92.3,92.28,1,0
"1850 renee way, concord, ca 94521",Single Family Residential,94521,1015000,4,3,3006,19675,65,338,0.0,37.9619289,-121.9558876,24,5,9,0,89314,92.29,92.3,92.28,1,0
"1846 camino estrada, concord, ca 94521",Single Family Residential,94521,710000,3,2,1657,6300,16,428,0.0,37.9533696,-121.9458223,46,5,9,0,89314,92.29,92.3,92.28,1,0
"3055 treat blvd #13, concord, ca 94518",Condo/Co-op,94518,318000,1,1,730,0,176,436,390.0,37.94045850000001,-122.02348290000002,50,4,6,0,76911,90.4,88.95,91.85,1,0
"3041 san miguel ct, concord, ca 94518",Single Family Residential,94518,890000,4,2,2060,11400,73,432,0.0,37.9558805,-122.0226326,37,4,6,0,76911,90.4,88.95,91.85,1,0
"4122 cheshire dr, concord, ca 94521",Single Family Residential,94521,700000,3,2,1682,6460,55,416,0.0,37.958245700000006,-122.001936,60,5,9,0,89314,92.29,92.3,92.28,1,0
"777 san simeon dr, concord, ca 94518",Single Family Residential,94518,750000,4,2,1870,8500,111,401,0.0,37.94264370000001,-122.0181472,56,4,6,0,76911,90.4,88.95,91.85,1,0
"1110 turtle rock ln, concord, ca 94521",Single Family Residential,94521,880000,4,3,2537,7650,59,347,32.0,37.9582214,-121.99243020000002,47,5,9,0,89314,92.29,92.3,92.28,1,0
"2450 walters way #19, concord, ca 94520",Condo/Co-op,94520,319000,2,1,900,1044,177,354,450.0,37.96131010000001,-122.0365855,40,2,5,2,50181,93.7,93.26,94.15,1,0
"952 autumn oak cir, concord, ca 94521",Single Family Residential,94521,1210000,5,4,3168,10062,44,382,85.0,37.9337443,-121.9761486,21,5,9,0,89314,92.29,92.3,92.28,1,0
"3310 northwood dr unit b, concord, ca 94520",Townhouse,94520,375000,2,2,1090,756,76,344,395.0,38.00026939999999,-122.0402171,50,2,5,2,50181,93.7,93.26,94.15,1,0
"4417 sunlight ct, concord, ca 94518",Single Family Residential,94518,827500,3,2,1897,4784,167,436,66.0,37.949267600000006,-121.9983825,41,4,6,0,76911,90.4,88.95,91.85,1,0
"1524 matheson rd #20, concord, ca 94521",Condo/Co-op,94521,310000,2,1,816,0,126,380,400.0,37.9605141,-121.9790957,49,5,9,0,89314,92.29,92.3,92.28,1,0
"1468 willcrest dr, concord, ca 94521",Single Family Residential,94521,755000,4,2,1448,0,37,521,0.0,37.9570059,-121.9754155,67,5,9,0,89314,92.29,92.3,92.28,1,0
"1457 saint james pkwy, concord, ca 94521",Townhouse,94521,485000,3,2,1574,1440,38,308,135.0,37.9565671,-121.9736182,50,5,9,0,89314,92.29,92.3,92.28,1,0
"3343 bennett way, concord, ca 94519",Single Family Residential,94519,662500,4,2,1422,6440,23,466,27.0,37.9923528,-122.0249862,68,5,6,0,71190,91.03,89.7,92.35,1,0
"3081 santa paula dr, concord, ca 94518",Single Family Residential,94518,888000,4,3,1865,9920,36,476,0.0,37.9375774,-122.0203011,59,4,6,0,76911,90.4,88.95,91.85,1,0
"1747 agadir ct, concord, ca 94518",Single Family Residential,94518,810000,3,2,1298,6750,29,624,0.0,37.9444859,-122.0398175,61,4,6,0,76911,90.4,88.95,91.85,1,0
"4414 smoke tree ct, concord, ca 94521",Single Family Residential,94521,805000,3,2,2167,6480,97,371,97.0,37.9516038,-121.9887654,42,5,9,0,89314,92.29,92.3,92.28,1,0
"1857 elkwood dr, concord, ca 94519",Single Family Residential,94519,750000,3,2,1438,6500,3,522,0.0,37.9894407,-121.99998159999998,56,5,6,0,71190,91.03,89.7,92.35,1,0
"969 rolling woods way, concord, ca 94521",Single Family Residential,94521,1070000,5,3,2778,7830,139,385,85.0,37.9318111,-121.9727498,24,5,9,0,89314,92.29,92.3,92.28,1,0
"1313 linden dr, concord, ca 94520",Single Family Residential,94520,610000,3,2,1321,5445,65,462,0.0,37.9592794,-122.0495855,66,2,5,2,50181,93.7,93.26,94.15,1,0
"1032 bancroft rd, concord, ca 94518",Townhouse,94518,505000,2,2,1184,954,86,427,399.0,37.9399461,-122.0506361,57,4,6,0,76911,90.4,88.95,91.85,1,0
"1893 landana dr unit b, concord, ca 94519",Townhouse,94519,370000,2,2,979,738,156,378,240.0,37.98933,-122.004936,51,5,6,0,71190,91.03,89.7,92.35,1,0
"1600 amhurst way, concord, ca 94518",Single Family Residential,94518,820000,4,2,1578,8500,55,520,0.0,37.9387874,-122.0435028,59,4,6,0,76911,90.4,88.95,91.85,1,0
"1864 camino estrada, concord, ca 94521",Single Family Residential,94521,705000,3,2,1657,6400,134,425,0.0,37.9539095,-121.9450224,46,5,9,0,89314,92.29,92.3,92.28,1,0
"1871 karas ct, concord, ca 94521",Single Family Residential,94521,999000,4,3,3032,17513,122,329,0.0,37.9651034,-121.9581982,21,5,9,0,89314,92.29,92.3,92.28,1,0
"2135 bluerock cir, concord, ca 94521",Single Family Residential,94521,785000,4,2,2539,4900,139,309,209.0,37.9657721,-121.9399783,26,5,9,0,89314,92.29,92.3,92.28,1,0
"1445 bel air dr unit b, concord, ca 94521",Townhouse,94521,355000,2,2,1122,902,156,316,300.0,37.963349,-121.991198,50,5,9,0,89314,92.29,92.3,92.28,1,0
"1403 bel air dr unit a, concord, ca 94521",Townhouse,94521,451000,3,2,1185,988,154,381,300.0,37.961846,-121.992516,50,5,9,0,89314,92.29,92.3,92.28,1,0
"4138 joan ave, concord, ca 94521",Single Family Residential,94521,615000,4,2,1160,5720,171,530,0.0,37.9630588,-121.99784950000002,68,5,9,0,89314,92.29,92.3,92.28,1,0
"3641 clayton rd #37, concord, ca 94521",Condo/Co-op,94521,375000,2,2,800,806,114,469,350.0,37.9698026,-122.0074041,39,5,9,0,89314,92.29,92.3,92.28,1,0
"1430 bel air dr #210, concord, ca 94521",Condo/Co-op,94521,336000,2,1,841,0,127,400,395.0,37.96089110000001,-121.9931666,31,5,9,0,89314,92.29,92.3,92.28,1,0
"1544 bailey rd #32, concord, ca 94521",Condo/Co-op,94521,327000,2,2,915,0,163,357,450.0,37.9613937,-121.9810533,39,5,9,0,89314,92.29,92.3,92.28,1,0
"4461 fallbrook rd, concord, ca 94521",Single Family Residential,94521,760000,4,2,1728,8450,140,440,32.0,37.95659129999999,-121.9915418,44,5,9,0,89314,92.29,92.3,92.28,1,0
"1105 fair weather cir, concord, ca 94518",Single Family Residential,94518,940000,4,2,2525,11760,157,372,64.0,37.9466151,-122.00031470000002,40,4,6,0,76911,90.4,88.95,91.85,1,0
"3860 e el campo ct, concord, ca 94519",Single Family Residential,94519,850000,5,4,2675,9900,161,318,0.0,37.97563579999999,-122.00235790000002,51,5,6,0,71190,91.03,89.7,92.35,1,0
"1775 sharon dr, concord, ca 94519",Single Family Residential,94519,572000,4,2,1624,7300,155,352,0.0,37.98135900000001,-121.9954508,66,5,6,0,71190,91.03,89.7,92.35,1,0
"1715 denkinger rd, concord, ca 94521",Single Family Residential,94521,830000,4,2,2227,21344,142,373,0.0,37.9731455,-121.9864332,58,5,9,0,89314,92.29,92.3,92.28,1,0
"4003 denver st, concord, ca 94521",Single Family Residential,94521,643000,3,2,1622,5395,114,396,38.0,37.97196,-121.9972276,32,5,9,0,89314,92.29,92.3,92.28,1,0
"3561 walnut ave, concord, ca 94519",Single Family Residential,94519,555000,2,1,1345,5663,125,413,0.0,37.9748438,-122.00957549999998,71,5,6,0,71190,91.03,89.7,92.35,1,0
"2644 saratoga ave, concord, ca 94519",Single Family Residential,94519,646000,3,3,2241,7200,111,288,0.0,37.9957514,-122.0239648,58,5,6,0,71190,91.03,89.7,92.35,1,0
"3662 joan ave, concord, ca 94521",Single Family Residential,94521,485000,3,2,1436,3300,127,338,282.0,37.9661234,-122.0083763,36,5,9,0,89314,92.29,92.3,92.28,1,0
"3013 justin way, concord, ca 94520",Single Family Residential,94520,570000,4,2,1172,5700,139,486,0.0,37.99234439999999,-122.03457790000002,67,2,5,2,50181,93.7,93.26,94.15,1,0
"2605 gill ct, concord, ca 94520",Single Family Residential,94520,535000,3,2,1158,7310,161,462,0.0,37.9823519,-122.0410164,65,2,5,2,50181,93.7,93.26,94.15,1,0
"2049 olivera rd unit d, concord, ca 94520",Townhouse,94520,380000,3,2,1086,1848,175,350,320.0,37.999089,-122.045908,50,2,5,2,50181,93.7,93.26,94.15,1,0
"2419 erie dr, concord, ca 94519",Single Family Residential,94519,615000,3,2,1179,7200,156,522,27.0,37.9851048,-122.0292493,67,5,6,0,71190,91.03,89.7,92.35,1,0
"2249 gehringer dr, concord, ca 94520",Single Family Residential,94520,610000,4,3,2201,5400,160,277,0.0,37.99455560000001,-122.0364873,67,2,5,2,50181,93.7,93.26,94.15,1,0
"4414 corkwood ct, concord, ca 94521",Single Family Residential,94521,759000,3,2,1641,5520,155,463,97.0,37.9511815,-121.9866553,47,5,9,0,89314,92.29,92.3,92.28,1,0
"4497 barberry ct, concord, ca 94521",Single Family Residential,94521,780000,4,2,1805,5580,111,432,0.0,37.9483048,-121.9907422,45,5,9,0,89314,92.29,92.3,92.28,1,0
"4830 geneva ave, concord, ca 94521",Single Family Residential,94521,630000,3,2,1248,8085,114,505,0.0,37.9634749,-121.9748379,61,5,9,0,89314,92.29,92.3,92.28,1,0
"1747 bishop dr, concord, ca 94521",Single Family Residential,94521,740000,3,2,1953,9200,93,379,0.0,37.96870379999999,-121.9773703,56,5,9,0,89314,92.29,92.3,92.28,1,0
"1843 fillmore way, concord, ca 94521",Single Family Residential,94521,790000,4,2,2200,7500,132,359,0.0,37.9713895,-121.9729275,57,5,9,0,89314,92.29,92.3,92.28,1,0
"4669 benbow ct, concord, ca 94521",Single Family Residential,94521,865000,4,4,2658,9000,85,325,0.0,37.9665482,-121.9769366,55,5,9,0,89314,92.29,92.3,92.28,1,0
"5552 indiana dr, concord, ca 94521",Single Family Residential,94521,666000,4,2,1321,7000,154,504,0.0,37.94343350000001,-121.9518216,61,5,9,0,89314,92.29,92.3,92.28,1,0
"5032 saint garrett ct, concord, ca 94521",Single Family Residential,94521,740000,3,2,1697,5250,27,436,0.0,37.95302210000001,-121.9737494,38,5,9,0,89314,92.29,92.3,92.28,1,0
"1267 cape cod way, concord, ca 94521",Single Family Residential,94521,615000,4,2,1528,6240,43,402,0.0,37.9603484,-122.0022469,60,5,9,0,89314,92.29,92.3,92.28,1,0
"1185 mcmullin dr, concord, ca 94518",Single Family Residential,94518,800000,3,2,1839,10620,128,435,0.0,37.9615114,-122.0092202,34,4,6,0,76911,90.4,88.95,91.85,1,0
"4119 cobblestone dr, concord, ca 94521",Single Family Residential,94521,526000,4,2,1495,5700,34,352,0.0,37.962384,-121.9990932,67,5,9,0,89314,92.29,92.3,92.28,1,0
"1042 kaski ln, concord, ca 94518",Single Family Residential,94518,800000,3,2,1624,15682,28,493,0.0,37.9517499,-122.0089315,67,4,6,0,76911,90.4,88.95,91.85,1,0
"5015 valley crest dr #131, concord, ca 94521",Condo/Co-op,94521,385000,2,2,1080,871,37,356,370.0,37.9570094,-121.9728546,37,5,9,0,89314,92.29,92.3,92.28,1,0
"4693 brenda cir, concord, ca 94521",Single Family Residential,94521,741000,3,2,1450,7500,29,511,0.0,37.9648749,-121.9807912,59,5,9,0,89314,92.29,92.3,92.28,1,0
"4219 cobblestone dr, concord, ca 94521",Single Family Residential,94521,800000,4,3,1660,9348,28,482,0.0,37.9613828,-121.9957618,67,5,9,0,89314,92.29,92.3,92.28,1,0
"2343 acacia dr, concord, ca 94520",Single Family Residential,94520,599000,3,1,1200,6325,8,499,0.0,37.9918489,-122.0360877,74,2,5,2,50181,93.7,93.26,94.15,1,0
"2987 claudia, concord, ca 94519",Single Family Residential,94519,605000,3,2,1108,5227,127,546,0.0,37.9845939,-122.0319137,67,5,6,0,71190,91.03,89.7,92.35,1,0
"2036 sierra rd, concord, ca 94518",Condo/Co-op,94518,359200,2,2,788,0,31,456,325.0,37.9533327,-122.03519540000002,56,4,6,0,76911,90.4,88.95,91.85,1,0
"4540 melody dr unit e, concord, ca 94521",Condo/Co-op,94521,415000,2,2,934,9340,104,444,414.0,37.960939,-121.987648,35,5,9,0,89314,92.29,92.3,92.28,1,0
"2686 e olivera rd, concord, ca 94519",Single Family Residential,94519,625000,4,2,1244,6000,118,502,0.0,37.9934711,-122.023876,59,5,6,0,71190,91.03,89.7,92.35,1,0
"4339 cloud ct, concord, ca 94518",Single Family Residential,94518,885000,4,3,2125,7360,111,416,66.0,37.9513595,-121.998116,41,4,6,0,76911,90.4,88.95,91.85,1,0
"3141 san gabriel dr, concord, ca 94518",Single Family Residential,94518,897500,4,3,2307,8250,121,389,0.0,37.9384758,-122.01905759999998,58,4,6,0,76911,90.4,88.95,91.85,1,0
"1325 waterfall way, concord, ca 94521",Townhouse,94521,415000,2,1,960,1320,9,432,530.0,37.959068,-121.99081,44,5,9,0,89314,92.29,92.3,92.28,1,0
"5313 paso del rio way, concord, ca 94521",Single Family Residential,94521,920000,4,3,2187,5775,119,421,0.0,37.94063370000001,-121.96661840000002,37,5,9,0,89314,92.29,92.3,92.28,1,0
"2237 rockne dr, concord, ca 94518",Single Family Residential,94518,722000,3,2,1247,6000,13,579,0.0,37.9482836,-122.0284056,63,4,6,0,76911,90.4,88.95,91.85,1,0
"1561 lyric ln, concord, ca 94521",Single Family Residential,94521,615000,3,2,1200,3150,57,513,125.0,37.9546501,-121.9592313,37,5,9,0,89314,92.29,92.3,92.28,1,0
"1900 cameron ct, concord, ca 94518",Single Family Residential,94518,690000,4,2,1753,7738,10,394,0.0,37.9502328,-122.0382412,59,4,6,0,76911,90.4,88.95,91.85,1,0
"5519 sepulveda ct, concord, ca 94521",Single Family Residential,94521,690000,3,2,1657,6300,13,416,0.0,37.9545311,-121.9471555,47,5,9,0,89314,92.29,92.3,92.28,1,0
"4616 deercreek ln, concord, ca 94521",Single Family Residential,94521,690000,3,2,1462,4465,3,472,33.0,37.9540879,-121.9839454,45,5,9,0,89314,92.29,92.3,92.28,1,0
"4532 shellflower ct, concord, ca 94521",Single Family Residential,94521,990000,5,4,3489,9775,13,284,64.0,37.9472599,-121.9940072,40,5,9,0,89314,92.29,92.3,92.28,1,0
"5042 jeri pl, concord, ca 94521",Single Family Residential,94521,600000,3,2,1106,9800,161,542,0.0,37.9599235,-121.970084,57,5,9,0,89314,92.29,92.3,92.28,1,0
"1761 elmhurst ln, concord, ca 94521",Single Family Residential,94521,770000,4,3,2003,8000,154,384,0.0,37.9689016,-121.9747491,55,5,9,0,89314,92.29,92.3,92.28,1,0
"1551 west st, concord, ca 94521",Single Family Residential,94521,567500,3,2,1232,6570,9,461,0.0,37.9695799,-122.0007811,64,5,9,0,89314,92.29,92.3,92.28,1,0
"1376 cobblestone ct, concord, ca 94521",Single Family Residential,94521,755000,4,2,1273,13300,8,593,0.0,37.9627618,-121.9983381,68,5,9,0,89314,92.29,92.3,92.28,1,0
"3943 royal arch dr, concord, ca 94519",Single Family Residential,94519,660000,3,2,1294,7488,111,510,0.0,37.9811274,-121.9926523,60,5,6,0,71190,91.03,89.7,92.35,1,0
"3503 wild flower way, concord, ca 94518",Single Family Residential,94518,870000,4,2,1852,6930,57,470,0.0,37.9426584,-122.0101751,47,4,6,0,76911,90.4,88.95,91.85,1,0
"1785 woodland ct, concord, ca 94521",Single Family Residential,94521,735000,3,2,1571,8500,1,468,0.0,37.9728944,-121.9807468,58,5,9,0,89314,92.29,92.3,92.28,1,0
"4384 heartwood ct, concord, ca 94521",Single Family Residential,94521,840000,5,2,2808,12720,15,299,0.0,37.9648194,-121.9852781,57,5,9,0,89314,92.29,92.3,92.28,1,0
"4864 alro ave, concord, ca 94521",Single Family Residential,94521,688000,3,2,1294,7700,104,532,0.0,37.9615651,-121.9763485,60,5,9,0,89314,92.29,92.3,92.28,1,0
"5152 lodato ct, concord, ca 94521",Single Family Residential,94521,800000,3,2,1776,13068,51,450,0.0,37.9620335,-121.9610198,65,5,9,0,89314,92.29,92.3,92.28,1,0
"4475 river ash ct, concord, ca 94521",Single Family Residential,94521,850000,4,3,2024,5400,148,420,97.0,37.9506416,-121.9842564,45,5,9,0,89314,92.29,92.3,92.28,1,0
"1164 krona ln, concord, ca 94521",Single Family Residential,94521,1250000,5,3,4032,15740,52,310,120.0,37.9360085,-121.9565985,19,5,9,0,89314,92.29,92.3,92.28,1,0
"23 ceemar ct, concord, ca 94519",Single Family Residential,94519,725000,3,2,1628,11000,174,445,0.0,37.97357120000001,-121.9973165,58,5,6,0,71190,91.03,89.7,92.35,1,0
"1790 sunshine dr, concord, ca 94520",Single Family Residential,94520,535000,3,2,1154,5700,174,464,0.0,37.9588688,-122.0460336,68,2,5,2,50181,93.7,93.26,94.15,1,0
"1900 apple dr, concord, ca 94518",Single Family Residential,94518,737000,4,2,1926,8320,122,383,0.0,37.9531693,-122.038441,71,4,6,0,76911,90.4,88.95,91.85,1,0
"1215 pine creek way unit e, concord, ca 94520",Townhouse,94520,353500,2,2,1089,792,156,325,315.0,37.96092700000001,-122.038953,50,2,5,2,50181,93.7,93.26,94.15,1,0
"1821 gilly ln, concord, ca 94518",Single Family Residential,94518,620000,3,2,1565,14000,135,396,0.0,37.9486499,-122.0390405,59,4,6,0,76911,90.4,88.95,91.85,1,0
"1470 peach pl, concord, ca 94518",Single Family Residential,94518,528888,3,1,1196,8050,132,442,0.0,37.9506643,-122.0430144,71,4,6,0,76911,90.4,88.95,91.85,1,0
"1094 mohr unit b, concord, ca 94518",Condo/Co-op,94518,350000,2,2,877,0,23,399,355.0,37.9470565,-122.05017,49,4,6,0,76911,90.4,88.95,91.85,1,0
"1319 david ln, concord, ca 94518",Single Family Residential,94518,835000,3,2,1559,9504,63,536,0.0,37.9368256,-122.04456840000002,37,4,6,0,76911,90.4,88.95,91.85,1,0
"3730 oakpark ct, concord, ca 94519",Single Family Residential,94519,800000,4,3,1966,9500,9,407,0.0,37.98046970000001,-121.9978939,57,5,6,0,71190,91.03,89.7,92.35,1,0
"943 mohr ln, concord, ca 94518",Single Family Residential,94518,870000,3,2,1668,32670,65,522,0.0,37.9394683,-122.0461668,61,4,6,0,76911,90.4,88.95,91.85,1,0
"1901 argonne dr, walnut creek, ca 94598",Single Family Residential,94598,908000,4,3,2410,10200,43,377,0.0,37.9376014,-122.0359989,52,8,6,0,127767,91.22,93.16,89.29,1,0
"911 mohr ln, concord, ca 94518",Single Family Residential,94518,875000,4,2,1648,20550,104,531,0.0,37.9368312,-122.0438136,66,4,6,0,76911,90.4,88.95,91.85,1,0
"1165 briarwood way, walnut creek, ca 94597",Single Family Residential,94597,1500000,5,4,3126,14000,177,480,0.0,37.93240720000001,-122.0476542,22,8,2,1,92676,83.36,91.13,75.58,1,0
"1391 bentley st, concord, ca 94518",Single Family Residential,94518,885000,3,2,2012,24150,127,440,0.0,37.9378489,-122.046411,59,4,6,0,76911,90.4,88.95,91.85,1,0
"1666 agadir st, concord, ca 94518",Single Family Residential,94518,610000,3,2,1366,7140,111,447,0.0,37.9429114,-122.0418156,61,4,6,0,76911,90.4,88.95,91.85,1,0
"1921 argonne dr, walnut creek, ca 94598",Single Family Residential,94598,939000,3,2,2030,10925,58,463,0.0,37.9380554,-122.0362209,52,8,6,0,127767,91.22,93.16,89.29,1,0
"225 mayhew way #6, walnut creek, ca 94597",Condo/Co-op,94597,580000,2,2,1196,0,83,485,502.0,37.9368994,-122.0517884,38,8,2,1,92676,83.36,91.13,75.58,1,0
"3636 sanford st, concord, ca 94520",Single Family Residential,94520,695000,4,3,1758,8250,149,395,0.0,38.0023604,-122.031736,2,2,5,2,50181,93.7,93.26,94.15,1,0
"3743 clayton rd, concord, ca 94521",Townhouse,94521,517500,3,2,1398,2660,85,370,375.0,37.9696904,-122.00606670000002,37,5,9,0,89314,92.29,92.3,92.28,1,0
"3905 clayton rd #38, concord, ca 94521",Condo/Co-op,94521,312000,2,2,1050,0,174,297,365.0,37.96925570000001,-122.0032866,50,5,9,0,89314,92.29,92.3,92.28,1,0
"1893 lynwood dr unit b, concord, ca 94519",Townhouse,94519,335000,2,2,979,720,71,342,250.0,37.990588,-122.003941,50,5,6,0,71190,91.03,89.7,92.35,1,0
"1601 franrose ln, concord, ca 94519",Single Family Residential,94519,650000,3,2,1303,9000,79,499,0.0,37.9720032,-122.0027355,65,5,6,0,71190,91.03,89.7,92.35,1,0
"3825 willow pass rd, concord, ca 94519",Single Family Residential,94519,550000,3,1,1073,8400,111,513,0.0,37.9904105,-122.0056226,70,5,6,0,71190,91.03,89.7,92.35,1,0
"76 cleopatra dr, pleasant hill, ca 94523",Single Family Residential,94523,650000,3,1,1420,6205,76,458,0.0,37.9495175,-122.0535369,70,6,12,0,86014,91.35,92.93,89.78,0,1
"15 cleopatra rd, pleasant hill, ca 94523",Single Family Residential,94523,715000,3,1,1052,6570,72,680,0.0,37.9514481,-122.05478,70,6,12,0,86014,91.35,92.93,89.78,0,1
"1746 clayton way, concord, ca 94519",Single Family Residential,94519,765000,4,2,2064,9360,113,371,0.0,37.97612520000001,-121.9995152,52,5,6,0,71190,91.03,89.7,92.35,1,0
"3934 mulberry dr unit b, concord, ca 94519",Townhouse,94519,385000,3,2,1213,874,111,317,0.0,37.979754,-121.992157,49,5,6,0,71190,91.03,89.7,92.35,1,0
"5405 lynbrook pl, concord, ca 94521",Single Family Residential,94521,810000,4,2,1898,7848,42,427,0.0,37.9389884,-121.962575,35,5,9,0,89314,92.29,92.3,92.28,1,0
"1085 kenwal rd, concord, ca 94521",Single Family Residential,94521,645300,3,2,1554,12589,77,415,0.0,37.9464185,-121.9667622,58,5,9,0,89314,92.29,92.3,92.28,1,0
"3525 northwood dr unit c, concord, ca 94520",Townhouse,94520,365000,2,2,1090,756,20,335,395.0,38.0009451,-122.0394623,50,2,5,2,50181,93.7,93.26,94.15,1,0
"1790 ellis st #12, concord, ca 94520",Condo/Co-op,94520,340000,2,2,1025,0,9,332,380.0,37.9724523,-122.0381889,41,2,5,2,50181,93.7,93.26,94.15,1,0
"1247 pine shadow ln, concord, ca 94521",Single Family Residential,94521,924500,4,2,2318,10019,101,399,0.0,37.9407252,-121.9496885,23,5,9,0,89314,92.29,92.3,92.28,1,0
"5762 reynolds pl, concord, ca 94521",Single Family Residential,94521,975000,3,4,2900,38400,128,336,0.0,37.9355263,-121.9472888,35,5,9,0,89314,92.29,92.3,92.28,1,0
"5501 arizona dr, concord, ca 94521",Single Family Residential,94521,505000,4,2,1321,7700,42,382,0.0,37.948575,-121.956132,62,5,9,0,89314,92.29,92.3,92.28,1,0
"2371 fairfield ave, concord, ca 94520",Single Family Residential,94520,525000,2,1,1084,5500,98,484,0.0,37.9874898,-122.037331,79,2,5,2,50181,93.7,93.26,94.15,1,0
"4006 willow pass rd unit a, concord, ca 94519",Townhouse,94519,325000,2,1,896,1232,30,363,250.0,37.9918583,-122.0031797,50,5,6,0,71190,91.03,89.7,92.35,1,0
"3151 baker dr, concord, ca 94519",Single Family Residential,94519,647000,3,2,1283,5490,3,504,27.0,37.9878308,-122.0298932,67,5,6,0,71190,91.03,89.7,92.35,1,0
"1290 cypress dr, concord, ca 94520",Single Family Residential,94520,401000,4,2,1488,5782,111,269,0.0,37.9600067,-122.0466996,66,2,5,2,50181,93.7,93.26,94.15,1,0
"1070 mohr ln #7, concord, ca 94518",Condo/Co-op,94518,435000,2,2,1379,0,83,315,510.0,37.9465605,-122.04857340000002,42,4,6,0,76911,90.4,88.95,91.85,1,0
"1252 camelia ct, concord, ca 94520",Single Family Residential,94520,750000,4,2,2018,2960,58,372,123.0,37.9484718,-122.04852,19,2,5,2,50181,93.7,93.26,94.15,1,0
"50 olivia ln, concord, ca 94521",Single Family Residential,94521,1400343,4,4,3055,19685,62,458,235.0,37.96955910000001,-121.9676908,1,5,9,0,89314,92.29,92.3,92.28,1,0
"1894 lynwood dr unit b, concord, ca 94519",Townhouse,94519,335000,2,2,979,720,111,342,0.0,37.991596,-122.002822,50,5,6,0,71190,91.03,89.7,92.35,1,0
"1807 manzanita dr, concord, ca 94519",Single Family Residential,94519,690000,4,2,1578,6500,17,437,0.0,37.9841226,-121.9987379,59,5,6,0,71190,91.03,89.7,92.35,1,0
"3410 klamath woods pl, concord, ca 94518",Single Family Residential,94518,905000,5,3,2466,9500,64,367,0.0,37.943828,-122.0158378,56,4,6,0,76911,90.4,88.95,91.85,1,0
"1016 scotnell pl, concord, ca 94518",Single Family Residential,94518,790000,4,2,1866,6098,42,423,0.0,37.9562218,-122.0244533,23,4,6,0,76911,90.4,88.95,91.85,1,0
"2273 holbrook dr, concord, ca 94519",Single Family Residential,94519,590000,3,2,1405,6030,111,420,0.0,37.9919253,-122.0293381,68,5,6,0,71190,91.03,89.7,92.35,1,0
"3212 stanley ct, concord, ca 94519",Single Family Residential,94519,635000,3,2,1258,7350,125,505,27.0,37.9901269,-122.02778390000002,68,5,6,0,71190,91.03,89.7,92.35,1,0
"2500 n 6th st, concord, ca 94519",Single Family Residential,94519,507000,3,2,1132,6480,48,448,25.0,37.98964229999999,-122.0324465,68,5,6,0,71190,91.03,89.7,92.35,1,0
"4524 melody dr unit a, concord, ca 94521",Condo/Co-op,94521,390000,2,2,918,0,98,425,414.0,37.961288,-121.987742,35,5,9,0,89314,92.29,92.3,92.28,1,0
"1544 bailey rd #4, concord, ca 94521",Condo/Co-op,94521,338000,2,2,915,0,93,369,450.0,37.9618098,-121.9814833,39,5,9,0,89314,92.29,92.3,92.28,1,0
"1152 saint timothy #102, concord, ca 94518",Townhouse,94518,528500,3,2,1506,1824,70,351,295.0,37.954674,-122.0041684,32,4,6,0,76911,90.4,88.95,91.85,1,0
"4157 pickwick, concord, ca 94521",Single Family Residential,94521,656000,4,2,1520,5529,36,432,0.0,37.9637098,-121.9965613,68,5,9,0,89314,92.29,92.3,92.28,1,0
"1385 elderberry dr, concord, ca 94521",Single Family Residential,94521,720000,3,2,1356,6600,160,531,32.0,37.9549808,-121.9834567,45,5,9,0,89314,92.29,92.3,92.28,1,0
"1245 plumleigh ln, concord, ca 94521",Single Family Residential,94521,620000,3,2,1310,6700,30,473,0.0,37.9550235,-121.9985602,65,5,9,0,89314,92.29,92.3,92.28,1,0
"4319 n larwin ave, concord, ca 94521",Single Family Residential,94521,770000,3,2,1367,7020,23,563,97.0,37.9512503,-121.995895,43,5,9,0,89314,92.29,92.3,92.28,1,0
"1295 shakespeare dr, concord, ca 94521",Single Family Residential,94521,670000,4,2,1284,6200,10,522,0.0,37.9599923,-121.99998159999998,66,5,9,0,89314,92.29,92.3,92.28,1,0
"4118 pickwick dr, concord, ca 94521",Single Family Residential,94521,600000,4,2,1160,5529,8,517,0.0,37.9640306,-121.9984825,67,5,9,0,89314,92.29,92.3,92.28,1,0
"1689 donaldson ct, concord, ca 94521",Single Family Residential,94521,660000,3,2,1211,12197,70,545,0.0,37.9575224,-121.9606643,71,5,9,0,89314,92.29,92.3,92.28,1,0
"5200 laurel dr, concord, ca 94521",Single Family Residential,94521,800000,4,2,1996,12019,91,401,0.0,37.962444,-121.95830929999998,47,5,9,0,89314,92.29,92.3,92.28,1,0
"4973 myrtle dr, concord, ca 94521",Single Family Residential,94521,670000,3,2,1475,11200,139,454,0.0,37.96776610000001,-121.9627527,68,5,9,0,89314,92.29,92.3,92.28,1,0
"5472 roundtree pl unit f, concord, ca 94521",Townhouse,94521,397500,3,2,1130,1677,2,352,386.0,37.94826060000001,-121.9606197,50,5,9,0,89314,92.29,92.3,92.28,1,0
"1295 kenwal rd unit a, concord, ca 94521",Condo/Co-op,94521,370000,2,1,915,1215,17,404,425.0,37.9490536,-121.9628611,50,5,9,0,89314,92.29,92.3,92.28,1,0
"2524 prestwick ave, concord, ca 94519",Single Family Residential,94519,472500,3,2,1103,6000,129,428,0.0,37.9963016,-122.0284056,60,5,6,0,71190,91.03,89.7,92.35,1,0
"1947 palo verde dr, concord, ca 94519",Single Family Residential,94519,647000,3,2,1125,9630,24,575,0.0,37.9905971,-122.0081987,62,5,6,0,71190,91.03,89.7,92.35,1,0
"3567 walnut ave, concord, ca 94519",Single Family Residential,94519,550000,3,1,1085,4928,9,507,0.0,37.9748501,-122.009309,83,5,6,0,71190,91.03,89.7,92.35,1,0
"1750 copperleaf ct, concord, ca 94519",Single Family Residential,94519,955000,4,2,2248,10986,38,425,193.0,37.975896,-122.0159266,6,5,6,0,71190,91.03,89.7,92.35,1,0
"1505 kirker pass rd #235, concord, ca 94521",Condo/Co-op,94521,360000,2,2,833,0,111,432,0.0,37.9534829,-121.9569615,36,5,9,0,89314,92.29,92.3,92.28,1,0
"2194 bluerock cir, concord, ca 94521",Single Family Residential,94521,715000,3,2,1678,8230,80,426,196.0,37.9645657,-121.9416893,26,5,9,0,89314,92.29,92.3,92.28,1,0
"5460 concord blvd unit f5, concord, ca 94521",Townhouse,94521,310000,2,2,794,0,170,390,301.0,37.95416450000001,-121.9514756,45,5,9,0,89314,92.29,92.3,92.28,1,0
"1505 kirker pass rd #120, concord, ca 94521",Condo/Co-op,94521,330000,2,1,744,0,84,444,334.0,37.9536534,-121.9564965,36,5,9,0,89314,92.29,92.3,92.28,1,0
"5450 kirkwood dr unit g3, concord, ca 94521",Condo/Co-op,94521,481000,2,2,1272,0,133,378,450.0,37.9572467,-121.9482111,40,5,9,0,89314,92.29,92.3,92.28,1,0
"5455 kirkwood dr unit g3, concord, ca 94521",Condo/Co-op,94521,355000,2,1,891,0,113,398,375.0,37.9585726,-121.9447797,41,5,9,0,89314,92.29,92.3,92.28,1,0
"2108 holbrook dr, concord, ca 94519",Single Family Residential,94519,670000,3,2,1552,6120,78,432,30.0,37.98916,-122.02312109999998,68,5,6,0,71190,91.03,89.7,92.35,1,0
"1424 garaventa ct, concord, ca 94521",Single Family Residential,94521,885000,5,3,2894,5000,64,306,0.0,37.9544524,-121.9704394,41,5,9,0,89314,92.29,92.3,92.28,1,0
"5067 black oak rd, concord, ca 94521",Single Family Residential,94521,600000,4,2,1103,6860,51,544,0.0,37.9503635,-121.9727498,61,5,9,0,89314,92.29,92.3,92.28,1,0
"5018 jeri pl, concord, ca 94521",Single Family Residential,94521,725000,4,2,2073,9200,97,350,0.0,37.9605664,-121.9707282,57,5,9,0,89314,92.29,92.3,92.28,1,0
"1531 ayers rd, concord, ca 94521",Single Family Residential,94521,645000,4,2,1222,8928,135,528,0.0,37.9576411,-121.9683956,67,5,9,0,89314,92.29,92.3,92.28,1,0
"1436 hartnell ct, concord, ca 94521",Single Family Residential,94521,678888,4,2,1495,7000,146,454,0.0,37.9558751,-121.9770593,58,5,9,0,89314,92.29,92.3,92.28,1,0
"1568 kent way, concord, ca 94521",Single Family Residential,94521,750000,4,4,3370,10890,160,223,0.0,37.960231,-121.969706,36,5,9,0,89314,92.29,92.3,92.28,1,0
"4644 phyllis ln, concord, ca 94521",Single Family Residential,94521,645000,3,2,1673,8000,170,386,0.0,37.9655784,-121.9804358,57,5,9,0,89314,92.29,92.3,92.28,1,0
"1417 garaventa ct, concord, ca 94521",Single Family Residential,94521,650000,3,2,1646,6750,111,395,0.0,37.9545011,-121.971017,41,5,9,0,89314,92.29,92.3,92.28,1,0
"1287 oak knoll dr, concord, ca 94521",Single Family Residential,94521,1050000,5,2,3019,5655,111,348,189.0,37.9467502,-121.9871439,18,5,9,0,89314,92.29,92.3,92.28,1,0
"4248 westwood ct, concord, ca 94521",Single Family Residential,94521,761000,4,2,1717,8000,50,443,0.0,37.97148189999999,-121.9838121,58,5,9,0,89314,92.29,92.3,92.28,1,0
"990 shadybrook dr, concord, ca 94521",Single Family Residential,94521,1149000,4,3,3280,9980,91,350,85.0,37.9330872,-121.97019509999998,23,5,9,0,89314,92.29,92.3,92.28,1,0
"5261 hiddencrest ct, concord, ca 94521",Single Family Residential,94521,1250000,4,4,3263,11456,38,383,85.0,37.9348685,-121.9790808,20,5,9,0,89314,92.29,92.3,92.28,1,0
"1223 pinecrest dr, concord, ca 94521",Single Family Residential,94521,815000,3,2,2182,8125,132,374,32.0,37.956579100000006,-121.9904757,44,5,9,0,89314,92.29,92.3,92.28,1,0
"1298 marlboro ct, concord, ca 94521",Single Family Residential,94521,680000,3,2,1482,8100,147,459,0.0,37.9569294,-121.9966946,64,5,9,0,89314,92.29,92.3,92.28,1,0
"837 tully way, concord, ca 94518",Single Family Residential,94518,805000,4,3,1971,10925,48,408,0.0,37.9410419,-122.0239204,58,4,6,0,76911,90.4,88.95,91.85,1,0
"1921 weaver ln, walnut creek, ca 94598",Single Family Residential,94598,885000,3,2,1630,10010,132,543,0.0,37.9384469,-122.0354216,52,8,6,0,127767,91.22,93.16,89.29,1,0
"814 weaver ln, concord, ca 94518",Single Family Residential,94518,915150,4,2,2085,9148,133,439,0.0,37.9360826,-122.0325353,28,4,6,0,76911,90.4,88.95,91.85,1,0
"1741 argonne dr, concord, ca 94518",Single Family Residential,94518,953000,4,2,2655,9090,178,359,0.0,37.9353037,-122.0344891,52,4,6,0,76911,90.4,88.95,91.85,1,0
"4145 eden ct, concord, ca 94521",Single Family Residential,94521,700000,4,2,1705,8550,135,411,0.0,37.95942120000001,-122.0005146,60,5,9,0,89314,92.29,92.3,92.28,1,0
"1442 rosal ln, concord, ca 94521",Single Family Residential,94521,805000,4,2,2122,8064,136,379,0.0,37.9648012,-121.9992265,71,5,9,0,89314,92.29,92.3,92.28,1,0
"5254 pebble glen dr, concord, ca 94521",Townhouse,94521,627000,3,2,1636,2816,83,383,210.0,37.9479958,-121.9748842,31,5,9,0,89314,92.29,92.3,92.28,1,0
"1404 garaventa ct, concord, ca 94521",Single Family Residential,94521,680000,3,2,1468,5000,161,463,0.0,37.9540738,-121.970706,38,5,9,0,89314,92.29,92.3,92.28,1,0
"3579 dormer ave, concord, ca 94519",Single Family Residential,94519,575000,3,2,1134,6000,57,507,0.0,37.9997706,-122.027029,57,5,6,0,71190,91.03,89.7,92.35,1,0
"1850 yolanda cir, clayton, ca 94517",Single Family Residential,94517,920000,4,2,2398,8200,41,384,0.0,37.9526576,-121.9427559,38,8,2,0,127799,85.28,76.74,93.82,0,0
"760 citrus ave, concord, ca 94518",Single Family Residential,94518,908000,4,2,2000,9600,42,454,0.0,37.9433468,-122.0136171,56,4,6,0,76911,90.4,88.95,91.85,1,0
"744 sunflower ct, concord, ca 94518",Single Family Residential,94518,635000,4,3,2389,6840,111,266,0.0,37.9443115,-122.0106192,46,4,6,0,76911,90.4,88.95,91.85,1,0
"3798 saint peter ct, concord, ca 94518",Single Family Residential,94518,825000,4,2,1980,9100,23,417,0.0,37.9623899,-122.0082875,43,4,6,0,76911,90.4,88.95,91.85,1,0
"849 savannah cir, walnut creek, ca 94598",Single Family Residential,94598,1015000,4,2,1959,9975,2,518,0.0,37.9334004,-122.0289163,56,8,6,0,127767,91.22,93.16,89.29,1,0
"1201 sheridan rd, concord, ca 94518",Single Family Residential,94518,700000,4,2,1821,10200,114,384,0.0,37.9632052,-122.0121071,58,4,6,0,76911,90.4,88.95,91.85,1,0
"4066 kensington dr, concord, ca 94521",Single Family Residential,94521,667000,4,2,1284,6840,100,519,0.0,37.9611874,-122.001936,66,5,9,0,89314,92.29,92.3,92.28,1,0
"969 oliveglen ct, concord, ca 94521",Single Family Residential,94521,1215000,5,4,3168,7875,1,384,85.0,37.9316944,-121.96919540000002,19,5,9,0,89314,92.29,92.3,92.28,1,0
"1221 mcewing ct, concord, ca 94521",Single Family Residential,94521,750000,3,2,1568,8190,126,478,0.0,37.961012,-122.0062,55,5,9,0,89314,92.29,92.3,92.28,1,0
"744 san marcos ct, concord, ca 94518",Single Family Residential,94518,933000,5,4,2673,8400,132,349,0.0,37.940278,-122.0147719,57,4,6,0,76911,90.4,88.95,91.85,1,0
"4228 treat blvd, concord, ca 94521",Single Family Residential,94521,780000,6,4,2700,7000,97,289,0.0,37.9567042,-121.9994041,30,5,9,0,89314,92.29,92.3,92.28,1,0
"766 ygnacio woods ct, concord, ca 94518",Single Family Residential,94518,1086000,5,3,2939,7900,86,370,0.0,37.9442864,-122.0127289,23,4,6,0,76911,90.4,88.95,91.85,1,0
"743 santa susanna ct, concord, ca 94518",Single Family Residential,94518,895000,3,2,1913,12000,65,468,0.0,37.9403025,-122.0142611,57,4,6,0,76911,90.4,88.95,91.85,1,0
"3415 klamath woods pl, concord, ca 94518",Single Family Residential,94518,775000,5,3,2466,9500,93,314,0.0,37.944191,-122.0162375,56,4,6,0,76911,90.4,88.95,91.85,1,0
"2735 calpine pl, concord, ca 94518",Single Family Residential,94518,680000,3,2,1148,9000,134,592,0.0,37.9460154,-122.0240981,52,4,6,0,76911,90.4,88.95,91.85,1,0
"3051 treat blvd #58, concord, ca 94518",Condo/Co-op,94518,314000,1,1,805,0,141,390,390.0,37.9400835,-122.023729,50,4,6,0,76911,90.4,88.95,91.85,1,0
"1015 san miguel rd, concord, ca 94518",Single Family Residential,94518,450000,3,3,2044,10700,111,220,0.0,37.9548355,-122.0242979,69,4,6,0,76911,90.4,88.95,91.85,1,0
"67 nottingham cir, clayton, ca 94517",Single Family Residential,94517,1025000,3,2,1932,13200,80,531,0.0,37.9419887,-121.9449557,44,8,2,0,127799,85.28,76.74,93.82,0,0
"5210 la corte bonita, concord, ca 94521",Single Family Residential,94521,1176250,4,3,2400,19200,14,490,0.0,37.9577699,-121.9623084,72,5,9,0,89314,92.29,92.3,92.28,1,0
"1260 detroit ave #2, concord, ca 94520",Townhouse,94520,605000,3,3,1317,827,45,459,285.0,37.9638559,-122.0369397,4,2,5,2,50181,93.7,93.26,94.15,1,0
"1259 meadowlark way, concord, ca 94521",Single Family Residential,94521,809000,3,4,2182,6300,87,371,32.0,37.9563421,-121.9878769,44,5,9,0,89314,92.29,92.3,92.28,1,0
"4632 melody dr unit f, concord, ca 94521",Condo/Co-op,94521,390000,2,2,899,0,156,434,414.0,37.960508,-121.986244,32,5,9,0,89314,92.29,92.3,92.28,1,0
"1317 sussex way, concord, ca 94521",Single Family Residential,94521,585000,3,2,1137,7000,176,515,0.0,37.9580784,-121.9974497,64,5,9,0,89314,92.29,92.3,92.28,1,0
"4176 hamlet dr, concord, ca 94521",Single Family Residential,94521,708000,3,2,1146,5700,3,618,0.0,37.9590308,-122.0018027,60,5,9,0,89314,92.29,92.3,92.28,1,0
"3237 meadowbrook dr, concord, ca 94519",Single Family Residential,94519,625000,3,2,1171,6300,99,534,27.0,37.9907472,-122.0313808,68,5,6,0,71190,91.03,89.7,92.35,1,0
"3278 ida dr, concord, ca 94519",Single Family Residential,94519,700000,4,2,1633,6120,37,429,27.0,37.9919547,-122.0312032,68,5,6,0,71190,91.03,89.7,92.35,1,0
"2530 prestwick ave, concord, ca 94519",Single Family Residential,94519,545000,3,2,1134,6000,36,481,0.0,37.9962067,-122.028228,60,5,6,0,71190,91.03,89.7,92.35,1,0
"2870 ponderosa dr, concord, ca 94520",Single Family Residential,94520,525000,2,1,940,6325,59,559,0.0,37.9912904,-122.0386631,74,2,5,2,50181,93.7,93.26,94.15,1,0
"1032 stimel dr, concord, ca 94518",Single Family Residential,94518,852500,4,2,2091,9135,155,408,0.0,37.9442653,-122.0490084,58,4,6,0,76911,90.4,88.95,91.85,1,0
"1307 sunshine dr, concord, ca 94520",Single Family Residential,94520,592000,3,2,1001,6000,94,591,0.0,37.9566094,-122.0496743,66,2,5,2,50181,93.7,93.26,94.15,1,0
"1207 5th ave, concord, ca 94518",Single Family Residential,94518,560000,3,2,1130,5940,111,496,0.0,37.96726,-122.0252527,67,4,6,0,76911,90.4,88.95,91.85,1,0
"137 roslyn dr, concord, ca 94518",Single Family Residential,94518,649000,2,1,1395,8505,59,465,0.0,37.9678701,-122.0147719,74,4,6,0,76911,90.4,88.95,91.85,1,0
"5370 fernbank dr, concord, ca 94521",Single Family Residential,94521,1250000,5,4,3168,8610,65,395,85.0,37.9303669,-121.9685956,19,5,9,0,89314,92.29,92.3,92.28,1,0
"5437 hiddenwood ct, concord, ca 94521",Single Family Residential,94521,1150000,5,4,3056,7166,66,376,85.0,37.9304161,-121.9664629,21,5,9,0,89314,92.29,92.3,92.28,1,0
"1236 new hampshire dr, concord, ca 94521",Single Family Residential,94521,700000,4,2,1437,7700,72,487,0.0,37.9455317,-121.9669294,56,5,9,0,89314,92.29,92.3,92.28,1,0
"1399 lupine ct, concord, ca 94521",Single Family Residential,94521,707250,3,2,1646,8400,97,430,0.0,37.95301,-121.9689288,58,5,9,0,89314,92.29,92.3,92.28,1,0
"1163 discovery way, concord, ca 94521",Single Family Residential,94521,735000,3,2,1593,5775,146,461,0.0,37.9414525,-121.9677292,36,5,9,0,89314,92.29,92.3,92.28,1,0
"3806 willow pass rd unit c, concord, ca 94519",Townhouse,94519,360000,2,1,900,1232,56,400,250.0,37.9889058,-122.0062888,51,5,6,0,71190,91.03,89.7,92.35,1,0
"3925 hidden grove ln, concord, ca 94519",Single Family Residential,94519,760000,4,2,2287,3939,94,332,80.0,37.9903386,-122.00395690000002,16,5,6,0,71190,91.03,89.7,92.35,1,0
"1858 elderwood dr, concord, ca 94519",Single Family Residential,94519,715000,3,2,2013,7575,156,355,0.0,37.98691270000001,-122.001936,68,5,6,0,71190,91.03,89.7,92.35,1,0
"3731 vancouver way, concord, ca 94520",Single Family Residential,94520,665000,3,2,1103,6000,34,603,0.0,38.005324,-122.0322689,61,2,5,2,50181,93.7,93.26,94.15,1,0
"652 wintergreen ln, walnut creek, ca 94598",Single Family Residential,94598,850000,3,2,1856,8633,111,458,0.0,37.9357929,-122.0154381,57,8,6,0,127767,91.22,93.16,89.29,1,0
"3226 primrose ln, walnut creek, ca 94598",Single Family Residential,94598,850000,3,2,1596,8625,98,533,0.0,37.9347352,-122.0165928,58,8,6,0,127767,91.22,93.16,89.29,1,0
"725 mandarin ln, walnut creek, ca 94598",Single Family Residential,94598,1345000,4,2,2963,19550,176,454,0.0,37.93442765,-122.0190972,57,8,6,0,127767,91.22,93.16,89.29,1,0
"2890 treat blvd #58, concord, ca 94518",Condo/Co-op,94518,372000,2,1,917,0,64,406,467.0,37.9354434,-122.0276043,47,4,6,0,76911,90.4,88.95,91.85,1,0
"825 oak grove rd #80, concord, ca 94518",Condo/Co-op,94518,315000,1,1,696,0,112,453,357.0,37.9391627,-122.027529,51,4,6,0,76911,90.4,88.95,91.85,1,0
"2578 hamilton ave, concord, ca 94519",Single Family Residential,94519,606000,3,2,1265,6000,80,479,0.0,37.9969953,-122.0258744,58,5,6,0,71190,91.03,89.7,92.35,1,0
"4024 treat blvd, concord, ca 94518",Single Family Residential,94518,1030000,4,2,2142,22500,126,481,0.0,37.9496146,-122.0047342,45,4,6,0,76911,90.4,88.95,91.85,1,0
"3435 tanager cir, concord, ca 94520",Single Family Residential,94520,765000,3,2,1525,6000,121,502,0.0,37.9971223,-122.032935,6,2,5,2,50181,93.7,93.26,94.15,1,0
"4100 churchill dr, concord, ca 94521",Single Family Residential,94521,630000,3,1,1052,6175,3,599,0.0,37.9580859,-122.0034462,60,5,9,0,89314,92.29,92.3,92.28,1,0
"1536 parkwood pl, concord, ca 94521",Townhouse,94521,415000,3,2,1191,1191,1,348,384.0,37.959679,-121.976867,43,5,9,0,89314,92.29,92.3,92.28,1,0
"1207 sheridan rd, concord, ca 94518",Single Family Residential,94518,840000,4,3,2352,9840,169,357,0.0,37.9634199,-122.0119517,58,4,6,0,76911,90.4,88.95,91.85,1,0
"2033 sierra rd #12, concord, ca 94520",Condo/Co-op,94520,352000,2,2,882,0,98,399,345.0,37.9542793,-122.0362291,56,2,5,2,50181,93.7,93.26,94.15,1,0
"2450 walters way #24, concord, ca 94520",Condo/Co-op,94520,309000,2,1,900,0,106,343,450.0,37.9612194,-122.0367257,40,2,5,2,50181,93.7,93.26,94.15,1,0
"1221 pine creek way unit a, concord, ca 94520",Townhouse,94520,415000,3,2,1240,880,3,335,315.0,37.9613795,-122.0381302,50,2,5,2,50181,93.7,93.26,94.15,1,0
"1853 n 5th st, concord, ca 94519",Single Family Residential,94519,725000,4,3,2037,5250,1,356,0.0,37.9793809,-122.0201456,74,5,6,0,71190,91.03,89.7,92.35,1,0
"2690 trafalgar cir, concord, ca 94520",Single Family Residential,94520,633000,4,2,1764,5200,99,359,0.0,38.0231671,-122.0261852,31,2,5,2,50181,93.7,93.26,94.15,1,0
"1169 rhoda way, concord, ca 94518",Single Family Residential,94518,745000,5,3,2409,12100,64,309,0.0,37.9577092,-122.0067774,45,4,6,0,76911,90.4,88.95,91.85,1,0
